,Name,Address,Zip,Location,MinPrice,MaxPrice,Currency,Cuisine,Longitude,Latitude,PhoneNumber,Url,WebsiteUrl,Award,AveragePrice,state_id,state_name,region,General_Category
2,Manresa,"320 Village Ln., Los Gatos, 95030, United States",95030,Los Gatos,325.0,325.0,USD,"Contemporary, Californian",-121.98071,37.22761,-3276,https://guide.michelin.com/en/california/los-gatos/restaurant/manresa,https://www.manresarestaurant.com/,3 MICHELIN Stars,325.0,CA,California,West,Contemporary
3,Atelier Crenn,"3127 Fillmore St., San Francisco, 94123, United States",94123,San Francisco,298.0,298.0,USD,"Contemporary, French",-122.43586,37.79835,515,https://guide.michelin.com/en/california/san-francisco/restaurant/atelier-crenn,https://www.ateliercrenn.com/,3 MICHELIN Stars,298.0,CA,California,West,Contemporary
5,Quince,"470 Pacific Ave., San Francisco, 94133, United States",94133,San Francisco,360.0,360.0,USD,"Contemporary, Californian",-122.4032607,37.7975054,-7860,https://guide.michelin.com/en/california/san-francisco/restaurant/quince,https://www.quincerestaurant.com/,3 MICHELIN Stars,360.0,CA,California,West,Contemporary
6,Eleven Madison Park,"11 Madison Ave., New York, 10010, United States",10010,New York,125.0,285.0,USD,"Contemporary, Innovative",-73.9872414,40.7415543,-582,https://guide.michelin.com/en/new-york-state/new-york/restaurant/eleven-madison-park,https://www.elevenmadisonpark.com/,3 MICHELIN Stars,205.0,NY,New York,Northeast,Contemporary
7,Eleven Madison Park,"11 Madison Ave., New York, 10010, United States",10010,New York,125.0,285.0,USD,"Contemporary, Innovative",-73.9872414,40.7415543,-582,https://guide.michelin.com/en/new-york-state/new-york/restaurant/eleven-madison-park,https://www.elevenmadisonpark.com/,3 MICHELIN Stars,205.0,NY,New York,Northeast,Contemporary
8,Per Se,"10 Columbus Circle, New York, 10019, United States",10019,New York,355.0,355.0,USD,"Contemporary, French",-73.9825882,40.7680545,-8946,https://guide.michelin.com/en/new-york-state/new-york/restaurant/per-se,http://www.perseny.com/,3 MICHELIN Stars,355.0,NY,New York,Northeast,Contemporary
9,Per Se,"10 Columbus Circle, New York, 10019, United States",10019,New York,355.0,355.0,USD,"Contemporary, French",-73.9825882,40.7680545,-8946,https://guide.michelin.com/en/new-york-state/new-york/restaurant/per-se,http://www.perseny.com/,3 MICHELIN Stars,355.0,NY,New York,Northeast,Contemporary
14,Chef's Table at Brooklyn Fare,"431 W. 37th St., New York, 10018, United States",10018,New York,395.0,395.0,USD,Contemporary,-73.9964997,40.7560823,1425,https://guide.michelin.com/en/new-york-state/new-york/restaurant/chef-s-table-at-brooklyn-fare,http://www.brooklynfare.com/,3 MICHELIN Stars,395.0,NY,New York,Northeast,Contemporary
15,Chef's Table at Brooklyn Fare,"431 W. 37th St., New York, 10018, United States",10018,New York,395.0,395.0,USD,Contemporary,-73.9964997,40.7560823,1425,https://guide.michelin.com/en/new-york-state/new-york/restaurant/chef-s-table-at-brooklyn-fare,http://www.brooklynfare.com/,3 MICHELIN Stars,395.0,NY,New York,Northeast,Contemporary
16,Alinea,"1723 N. Halsted St., Chicago, 60614, United States",60614,Chicago,210.0,365.0,USD,"Contemporary, Creative",-87.648174,41.9132737,335,https://guide.michelin.com/en/illinois/chicago/restaurant/alinea,https://www.alinearestaurant.com/,3 MICHELIN Stars,287.5,IL,Illinois,Midwest,Contemporary
19,Vespertine,"3599 Hayden Ave., Culver City, 90232, United States",90232,Culver City,295.0,295.0,USD,Contemporary,-118.38166,34.024204,-3020,https://guide.michelin.com/en/california/culver-city/restaurant/vespertine,http://www.vespertine.la,2 MICHELIN Stars,295.0,CA,California,West,Contemporary
23,Addison,"5200 Grand Del Mar Way, San Diego, 92130, United States",92130,San Diego,175.0,275.0,USD,"Contemporary, French",-117.1988908,32.9412972,-356,https://guide.michelin.com/en/california/us-san-diego/restaurant/addison,https://www.addisondelmar.com/,2 MICHELIN Stars,225.0,CA,California,West,Contemporary
24,Commis,"3859 Piedmont Ave., Oakland, 94611, United States",94611,Oakland,189.0,189.0,USD,Contemporary,-122.254846,37.8246825,-3045,https://guide.michelin.com/en/california/oakland/restaurant/commis,http://www.commisrestaurant.com,2 MICHELIN Stars,189.0,CA,California,West,Contemporary
25,Commis,"3859 Piedmont Ave., Oakland, 94611, United States",94611,Oakland,189.0,189.0,USD,Contemporary,-122.254846,37.8246825,-3045,https://guide.michelin.com/en/california/oakland/restaurant/commis,http://www.commisrestaurant.com,2 MICHELIN Stars,189.0,CA,California,West,Contemporary
29,Lazy Bear,"3416 19th St., San Francisco, 94110, United States",94110,San Francisco,199.0,221.0,USD,"Contemporary, Modern Cuisine",-122.41969,37.760204,-9380,https://guide.michelin.com/en/california/san-francisco/restaurant/lazy-bear,https://www.lazybearsf.com/,2 MICHELIN Stars,210.0,CA,California,West,Contemporary
30,Birdsong,"1085 Mission St., San Francisco, 94103, United States",94103,San Francisco,255.0,255.0,USD,"Contemporary, American",-122.41048,37.779495,-8115,https://guide.michelin.com/en/california/san-francisco/restaurant/birdsong,https://www.birdsongsf.com/,2 MICHELIN Stars,255.0,CA,California,West,Contemporary
34,Coi,"373 Broadway, San Francisco, 94133, United States",94133,San Francisco,250.0,250.0,USD,"Contemporary, Californian",-122.4033677,37.7981895,-7978,https://guide.michelin.com/en/california/san-francisco/restaurant/coi,https://www.coirestaurant.com/,2 MICHELIN Stars,250.0,CA,California,West,Contemporary
36,The Modern,"9 W. 53rd St., New York, 10019, United States",10019,New York,138.0,188.0,USD,Contemporary,-73.97628,40.76106,-341,https://guide.michelin.com/en/new-york-state/new-york/restaurant/the-modern,https://www.themodernnyc.com/,2 MICHELIN Stars,163.0,NY,New York,Northeast,Contemporary
37,The Modern,"9 W. 53rd St., New York, 10019, United States",10019,New York,138.0,188.0,USD,Contemporary,-73.97628,40.76106,-341,https://guide.michelin.com/en/new-york-state/new-york/restaurant/the-modern,https://www.themodernnyc.com/,2 MICHELIN Stars,163.0,NY,New York,Northeast,Contemporary
39,Ko,"8 Extra Pl., New York, 10003, United States",10003,New York,225.0,225.0,USD,Contemporary,-73.9916056,40.7246476,-119,https://guide.michelin.com/en/new-york-state/new-york/restaurant/ko,https://www.momofuku.com/,2 MICHELIN Stars,225.0,NY,New York,Northeast,Contemporary
40,Ko,"8 Extra Pl., New York, 10003, United States",10003,New York,225.0,225.0,USD,Contemporary,-73.9916056,40.7246476,-119,https://guide.michelin.com/en/new-york-state/new-york/restaurant/ko,https://www.momofuku.com/,2 MICHELIN Stars,225.0,NY,New York,Northeast,Contemporary
43,Atera,"77 Worth St., New York, 10013, United States",10013,New York,285.0,285.0,USD,Contemporary,-74.0055912,40.7168498,-458,https://guide.michelin.com/en/new-york-state/new-york/restaurant/atera,http://www.ateranyc.com/,2 MICHELIN Stars,285.0,NY,New York,Northeast,Contemporary
44,Atera,"77 Worth St., New York, 10013, United States",10013,New York,285.0,285.0,USD,Contemporary,-74.0055912,40.7168498,-458,https://guide.michelin.com/en/new-york-state/new-york/restaurant/atera,http://www.ateranyc.com/,2 MICHELIN Stars,285.0,NY,New York,Northeast,Contemporary
45,Jean-Georges,"1 Central Park West, New York, 10023, United States",10023,New York,148.0,248.0,USD,"Contemporary, French Contemporary",-73.98155,40.76907,-2987,https://guide.michelin.com/en/new-york-state/new-york/restaurant/jean-georges,https://www.jean-georgesrestaurant.com/,2 MICHELIN Stars,198.0,NY,New York,Northeast,Contemporary
46,Jean-Georges,"1 Central Park West, New York, 10023, United States",10023,New York,148.0,248.0,USD,"Contemporary, French Contemporary",-73.98155,40.76907,-2987,https://guide.michelin.com/en/new-york-state/new-york/restaurant/jean-georges,https://www.jean-georgesrestaurant.com/,2 MICHELIN Stars,198.0,NY,New York,Northeast,Contemporary
47,Blanca,"261 Moore St., New York, 11206, United States",11206,New York,198.0,198.0,USD,Contemporary,-73.9336873,40.7049906,-2259,https://guide.michelin.com/en/new-york-state/new-york/restaurant/blanca,https://www.blancanyc.com/,2 MICHELIN Stars,198.0,NY,New York,Northeast,Contemporary
48,Blanca,"261 Moore St., New York, 11206, United States",11206,New York,198.0,198.0,USD,Contemporary,-73.9336873,40.7049906,-2259,https://guide.michelin.com/en/new-york-state/new-york/restaurant/blanca,https://www.blancanyc.com/,2 MICHELIN Stars,198.0,NY,New York,Northeast,Contemporary
51,Gabriel Kreuther,"41 W. 42nd St., New York, 10036, United States",10036,New York,90.0,245.0,USD,"Contemporary, Alsatian",-73.982025,40.75397,-4871,https://guide.michelin.com/en/new-york-state/new-york/restaurant/gabriel-kreuther,https://www.gknyc.com/,2 MICHELIN Stars,167.5,NY,New York,Northeast,Contemporary
52,Gabriel Kreuther,"41 W. 42nd St., New York, 10036, United States",10036,New York,90.0,245.0,USD,"Contemporary, Alsatian",-73.982025,40.75397,-4871,https://guide.michelin.com/en/new-york-state/new-york/restaurant/gabriel-kreuther,https://www.gknyc.com/,2 MICHELIN Stars,167.5,NY,New York,Northeast,Contemporary
61,Oriole,"661 W. Walnut St., Chicago, 60661, United States",60661,Chicago,285.0,285.0,USD,"Contemporary, American Contemporary",-87.64513,41.886196,-4904,https://guide.michelin.com/en/illinois/chicago/restaurant/oriole,https://www.oriolechicago.com/,2 MICHELIN Stars,285.0,IL,Illinois,Midwest,Contemporary
62,Smyth,"177 N. Ada St., Chicago, 60607, United States",60607,Chicago,265.0,265.0,USD,"Contemporary, Modern Cuisine",-87.6609432,41.8850391,-2913,https://guide.michelin.com/en/illinois/chicago/restaurant/smyth,https://www.smythandtheloyalist.com/,2 MICHELIN Stars,265.0,IL,Illinois,Midwest,Contemporary
63,Ever,"1340 W. Fulton Market, Chicago, 60607, United States",60607,Chicago,285.0,285.0,USD,"Contemporary, Modern Cuisine",-87.6595739,41.8867166,https://www.ever-restaurant.com/,https://guide.michelin.com/en/illinois/chicago/restaurant/ever,https://www.ever-restaurant.com/,2 MICHELIN Stars,285.0,IL,Illinois,Midwest,Contemporary
64,Moody Tongue,"2515 S. Wabash Ave., Chicago, 60616, United States",60616,Chicago,285.0,330.0,USD,"Contemporary, American Contemporary",-87.6252282,41.8469648,-4399,https://guide.michelin.com/en/illinois/chicago/restaurant/moody-tongue,https://www.moodytongue.com/,2 MICHELIN Stars,307.5,IL,Illinois,Midwest,Contemporary
65,Jônt,"1906 14th St. NW, Washington, 20009, United States",20009,Washington,305.0,305.0,USD,Contemporary,-77.0321498,38.9158847,-7242,https://guide.michelin.com/en/district-of-columbia/washington-dc/restaurant/jont,https://www.jontdc.com/,2 MICHELIN Stars,305.0,DC,District of Columbia,South,Contemporary
66,Pineapple and Pearls,"715 8th St. SE, Washington, 20003, United States",20003,Washington,150.0,325.0,USD,Contemporary,-76.99514,38.880707,-6768,https://guide.michelin.com/en/district-of-columbia/washington-dc/restaurant/pineapple-and-pearls,https://www.pineappleandpearls.com/,2 MICHELIN Stars,237.5,DC,District of Columbia,South,Contemporary
67,minibar,"855 E St. NW, Washington, 20004, United States",20004,Washington,295.0,295.0,USD,Contemporary,-77.02386,38.896294,-3,https://guide.michelin.com/en/district-of-columbia/washington-dc/restaurant/minibar,https://www.minibarbyjoseandres.com/,2 MICHELIN Stars,295.0,DC,District of Columbia,South,Contemporary
71,The Village Pub,"2967 Woodside Rd., Woodside, 94062, United States",94062,Woodside,45.0,89.0,USD,"Contemporary, American Contemporary",-122.25178,37.42897,-9089,https://guide.michelin.com/en/california/woodside/restaurant/the-village-pub,https://www.thevillagepub.net/,1 MICHELIN Star,67.0,CA,California,West,Contemporary
72,The Village Pub,"2967 Woodside Rd., Woodside, 94062, United States",94062,Woodside,45.0,89.0,USD,"Contemporary, American Contemporary",-122.25178,37.42897,-9089,https://guide.michelin.com/en/california/woodside/restaurant/the-village-pub,https://www.thevillagepub.net/,1 MICHELIN Star,67.0,CA,California,West,Contemporary
73,The Village Pub,"2967 Woodside Rd., Woodside, 94062, United States",94062,Woodside,45.0,89.0,USD,"Contemporary, American Contemporary",-122.25178,37.42897,-9089,https://guide.michelin.com/en/california/woodside/restaurant/the-village-pub,https://www.thevillagepub.net/,1 MICHELIN Star,67.0,CA,California,West,Contemporary
74,Pasta | Bar,"16101 Ventura Blvd., Ste.250, Encino, 91436, United States",16101,Encino,165.0,165.0,USD,"Contemporary, American",-118.483862,34.1567212,-4913,https://guide.michelin.com/en/california/encino/restaurant/pasta-bar,https://www.pastabarencino.com/,1 MICHELIN Star,165.0,PA,Pennsylvania,Northeast,Contemporary
78,La Toque,"1314 McKinstry St., Napa, 94559, United States",94559,Napa,95.0,225.0,USD,Contemporary,-122.28349,38.30351,-3707,https://guide.michelin.com/en/california/napa/restaurant/la-toque,https://www.latoque.com/,1 MICHELIN Star,160.0,CA,California,West,Contemporary
82,Chez TJ,"938 Villa St., Mountain View, 94041, United States",94041,Mountain View,225.0,225.0,USD,"Contemporary, American",-122.08044,37.39468,-6780,https://guide.michelin.com/en/california/mountain-view/restaurant/chez-tj,https://www.cheztj.com/,1 MICHELIN Star,225.0,CA,California,West,Contemporary
86,Six Test Kitchen,"3075 Blue Rock Rd., Paso Robles, 93446, United States",93446,Paso Robles,155.0,185.0,USD,Contemporary,-120.6898229,35.5757084,sixtestkitchen.com,https://guide.michelin.com/en/california/paso-robles/restaurant/six-test-kitchen,http://sixtestkitchen.com,1 MICHELIN Star,170.0,CA,California,West,Contemporary
87,Six Test Kitchen,"3075 Blue Rock Rd., Paso Robles, 93446, United States",93446,Paso Robles,155.0,185.0,USD,Contemporary,-120.6898229,35.5757084,sixtestkitchen.com,https://guide.michelin.com/en/california/paso-robles/restaurant/six-test-kitchen,http://sixtestkitchen.com,1 MICHELIN Star,170.0,CA,California,West,Contemporary
88,Madcap,"198 Sir Francis Drake Blvd., San Anselmo, 94960, United States",94960,San Anselmo,110.0,110.0,USD,"Contemporary, Japanese Contemporary",-122.56168,37.974712,-8936,https://guide.michelin.com/en/california/san-anselmo/restaurant/madcap,https://www.madcapmarin.com/,1 MICHELIN Star,110.0,CA,California,West,Contemporary
99,Maude,"212 S. Beverly Dr., Beverly Hills, 90212, United States",90212,Beverly Hills,150.0,150.0,USD,"Contemporary, European Contemporary",-118.39904,34.064346,-2967,https://guide.michelin.com/en/california/beverly-hills/restaurant/maude,https://www.mauderestaurant.com/,1 MICHELIN Star,150.0,CA,California,West,Contemporary
107,Aubergine,"Monte Verde at 7th Ave., Carmel-by-the-Sea, 93921, United States",93921,Carmel-by-the-Sea,205.0,205.0,USD,"Contemporary, Californian",-121.924355,36.55406,-7371,https://guide.michelin.com/en/california/carmel-by-the-sea/restaurant/aubergine,https://www.auberginecarmel.com/,1 MICHELIN Star,205.0,CA,California,West,Contemporary
108,Madera,"2825 Sand Hill Rd., Menlo Park, 94025, United States",94025,Menlo Park,78.0,129.0,USD,Contemporary,-122.21151,37.42014,-451,https://guide.michelin.com/en/california/menlo-park/restaurant/madera,https://www.maderasandhill.com/,1 MICHELIN Star,103.5,CA,California,West,Contemporary
109,Madera,"2825 Sand Hill Rd., Menlo Park, 94025, United States",94025,Menlo Park,78.0,129.0,USD,Contemporary,-122.21151,37.42014,-451,https://guide.michelin.com/en/california/menlo-park/restaurant/madera,https://www.maderasandhill.com/,1 MICHELIN Star,103.5,CA,California,West,Contemporary
110,Orsa & Winston,"122 W. 4th St., Los Angeles, 90013, United States",90013,Los Angeles,125.0,125.0,USD,"Contemporary, Asian",-118.2479493,34.0484698,226,https://guide.michelin.com/en/california/us-los-angeles/restaurant/orsa-winston,https://www.orsaandwinston.com/,1 MICHELIN Star,125.0,CA,California,West,Contemporary
120,Sons & Daughters,"708 Bush St., San Francisco, 94108, United States",94108,San Francisco,225.0,225.0,USD,Contemporary,-122.4091443,37.7902661,-7287,https://guide.michelin.com/en/california/san-francisco/restaurant/sons-daughters,https://www.sonsanddaughterssf.com/,1 MICHELIN Star,225.0,CA,California,West,Contemporary
130,Angler SF,"132 The Embarcadero, San Francisco, 94105, United States",94105,San Francisco,600.0,600.0,USD,"Contemporary, Seafood",-122.39213,37.793167,-8899,https://guide.michelin.com/en/california/san-francisco/restaurant/angler-sf,https://www.anglerrestaurants.com/,1 MICHELIN Star,600.0,CA,California,West,Contemporary
132,Gary Danko,"800 North Point St., San Francisco, 94109, United States",94109,San Francisco,95.0,139.0,USD,Contemporary,-122.4206863,37.8058115,-1394,https://guide.michelin.com/en/california/san-francisco/restaurant/gary-danko,https://www.garydanko.com/,1 MICHELIN Star,117.0,CA,California,West,Contemporary
134,Avery,"1552 Fillmore St., San Francisco, 94115, United States",94115,San Francisco,89.0,189.0,USD,"Contemporary, Creative",-122.43278,37.783783,-589,https://guide.michelin.com/en/california/san-francisco/restaurant/avery,https://www.averysf.com/,1 MICHELIN Star,139.0,CA,California,West,Contemporary
139,The Kitchen,"2225 Hurley Way, Ste. 101, Sacramento, 95825, United States",95825,Sacramento,155.0,155.0,USD,"Contemporary, Californian",-121.414234,38.5890509,-5823,https://guide.michelin.com/en/california/us-sacramento/restaurant/the-kitchen-559371,https://www.thekitchenrestaurant.com/,1 MICHELIN Star,155.0,CA,California,West,Contemporary
140,The Kitchen,"2225 Hurley Way, Ste. 101, Sacramento, 95825, United States",95825,Sacramento,155.0,155.0,USD,"Contemporary, Californian",-121.414234,38.5890509,-5823,https://guide.michelin.com/en/california/us-sacramento/restaurant/the-kitchen-559371,https://www.thekitchenrestaurant.com/,1 MICHELIN Star,155.0,CA,California,West,Contemporary
142,Knife Pleat,"3333 S. Bristol St., Ste. 3001, Costa Mesa, 92626, United States",92626,Costa Mesa,80.0,135.0,USD,"Contemporary, Modern French",-117.8856979,33.6904299,-1940,https://guide.michelin.com/en/california/us-costa-mesa/restaurant/knife-pleat,https://www.knifepleat.com/,1 MICHELIN Star,107.5,CA,California,West,Contemporary
144,Protégé,"250 California Ave., Palo Alto, 94306, United States",94306,Palo Alto,150.0,210.0,USD,"Contemporary, Californian",-122.14362,37.427853,https://www.protegepaloalto.com/,https://guide.michelin.com/en/california/palo-alto/restaurant/protege,https://www.protegepaloalto.com/,1 MICHELIN Star,180.0,CA,California,West,Contemporary
149,Estela,"47 E. Houston St., New York, 10012, United States",10012,New York,60.0,100.0,USD,"Contemporary, American",-73.9948,40.72471,-6700,https://guide.michelin.com/en/new-york-state/new-york/restaurant/estela,https://www.estelanyc.com/,1 MICHELIN Star,80.0,NY,New York,Northeast,Contemporary
150,Estela,"47 E. Houston St., New York, 10012, United States",10012,New York,60.0,100.0,USD,"Contemporary, American",-73.9948,40.72471,-6700,https://guide.michelin.com/en/new-york-state/new-york/restaurant/estela,https://www.estelanyc.com/,1 MICHELIN Star,80.0,NY,New York,Northeast,Contemporary
159,Vestry,"246 Spring St., New York, 10013, United States",10013,New York,103.0,103.0,USD,"Contemporary, Modern Cuisine",-74.0055581,40.7256137,-922,https://guide.michelin.com/en/new-york-state/new-york/restaurant/vestry,https://www.vestrynyc.com/,1 MICHELIN Star,103.0,NY,New York,Northeast,Contemporary
160,Vestry,"246 Spring St., New York, 10013, United States",10013,New York,103.0,103.0,USD,"Contemporary, Modern Cuisine",-74.0055581,40.7256137,-922,https://guide.michelin.com/en/new-york-state/new-york/restaurant/vestry,https://www.vestrynyc.com/,1 MICHELIN Star,103.0,NY,New York,Northeast,Contemporary
165,Francie,"134 Broadway, New York, 11249, United States",11249,New York,90.0,90.0,USD,"Contemporary, Italian",-73.9637588,40.7103459,-6072,https://guide.michelin.com/en/new-york-state/new-york/restaurant/francie,https://www.franciebrooklyn.com/,1 MICHELIN Star,90.0,NY,New York,Northeast,Contemporary
166,Francie,"134 Broadway, New York, 11249, United States",11249,New York,90.0,90.0,USD,"Contemporary, Italian",-73.9637588,40.7103459,-6072,https://guide.michelin.com/en/new-york-state/new-york/restaurant/francie,https://www.franciebrooklyn.com/,1 MICHELIN Star,90.0,NY,New York,Northeast,Contemporary
177,Crown Shy,"70 Pine St., New York, 10005, United States",10005,New York,45.0,90.0,USD,"Contemporary, American",-74.0087206,40.7067068,-1237,https://guide.michelin.com/en/new-york-state/new-york/restaurant/crown-shy,https://www.crownshy.nyc/,1 MICHELIN Star,67.5,NY,New York,Northeast,Contemporary
178,Crown Shy,"70 Pine St., New York, 10005, United States",10005,New York,45.0,90.0,USD,"Contemporary, American",-74.0087206,40.7067068,-1237,https://guide.michelin.com/en/new-york-state/new-york/restaurant/crown-shy,https://www.crownshy.nyc/,1 MICHELIN Star,67.5,NY,New York,Northeast,Contemporary
185,The Musket Room,"265 Elizabeth St., New York, 10012, United States",10012,New York,66.0,98.0,USD,"Contemporary, American Contemporary",-73.99375,40.723915,229,https://guide.michelin.com/en/new-york-state/new-york/restaurant/the-musket-room,https://www.themusketroom.com/,1 MICHELIN Star,82.0,NY,New York,Northeast,Contemporary
186,The Musket Room,"265 Elizabeth St., New York, 10012, United States",10012,New York,66.0,98.0,USD,"Contemporary, American Contemporary",-73.99375,40.723915,229,https://guide.michelin.com/en/new-york-state/new-york/restaurant/the-musket-room,https://www.themusketroom.com/,1 MICHELIN Star,82.0,NY,New York,Northeast,Contemporary
189,Oxalis,"791 Washington Ave., New York, 11238, United States",11238,New York,40.0,105.0,USD,"Contemporary, American Contemporary",-73.9627166,40.6729122,-7578,https://guide.michelin.com/en/new-york-state/new-york/restaurant/oxalis,https://www.oxalisnyc.com/,1 MICHELIN Star,72.5,NY,New York,Northeast,Contemporary
190,Oxalis,"791 Washington Ave., New York, 11238, United States",11238,New York,40.0,105.0,USD,"Contemporary, American Contemporary",-73.9627166,40.6729122,-7578,https://guide.michelin.com/en/new-york-state/new-york/restaurant/oxalis,https://www.oxalisnyc.com/,1 MICHELIN Star,72.5,NY,New York,Northeast,Contemporary
197,The River Café,"1 Water St., New York, 11201, United States",11201,New York,54.0,175.0,USD,Contemporary,-73.9942984,40.7034279,-4004,https://guide.michelin.com/en/new-york-state/new-york/restaurant/the-river-cafe,https://www.rivercafe.com/,1 MICHELIN Star,114.5,NY,New York,Northeast,Contemporary
198,The River Café,"1 Water St., New York, 11201, United States",11201,New York,54.0,175.0,USD,Contemporary,-73.9942984,40.7034279,-4004,https://guide.michelin.com/en/new-york-state/new-york/restaurant/the-river-cafe,https://www.rivercafe.com/,1 MICHELIN Star,114.5,NY,New York,Northeast,Contemporary
213,Bâtard,"239 West Broadway, New York, 10013, United States",10013,New York,69.0,94.0,USD,Contemporary,-74.00589,40.719616,-1784,https://guide.michelin.com/en/new-york-state/new-york/restaurant/batard,https://www.batardtribeca.com/,1 MICHELIN Star,81.5,NY,New York,Northeast,Contemporary
214,Bâtard,"239 West Broadway, New York, 10013, United States",10013,New York,69.0,94.0,USD,Contemporary,-74.00589,40.719616,-1784,https://guide.michelin.com/en/new-york-state/new-york/restaurant/batard,https://www.batardtribeca.com/,1 MICHELIN Star,81.5,NY,New York,Northeast,Contemporary
215,Caviar Russe,"538 Madison Ave., New York, 10022, United States",10022,New York,150.0,150.0,USD,"Contemporary, Seafood",-73.97355,40.760685,-5676,https://guide.michelin.com/en/new-york-state/new-york/restaurant/caviar-russe,https://www.caviarrusse.com/,1 MICHELIN Star,150.0,NY,New York,Northeast,Contemporary
216,Caviar Russe,"538 Madison Ave., New York, 10022, United States",10022,New York,150.0,150.0,USD,"Contemporary, Seafood",-73.97355,40.760685,-5676,https://guide.michelin.com/en/new-york-state/new-york/restaurant/caviar-russe,https://www.caviarrusse.com/,1 MICHELIN Star,150.0,NY,New York,Northeast,Contemporary
217,Contra,"138 Orchard St., New York, 10002, United States",10002,New York,89.0,89.0,USD,Contemporary,-73.98922,40.719917,-3887,https://guide.michelin.com/en/new-york-state/new-york/restaurant/contra,https://www.contranyc.com/,1 MICHELIN Star,89.0,NY,New York,Northeast,Contemporary
218,Contra,"138 Orchard St., New York, 10002, United States",10002,New York,89.0,89.0,USD,Contemporary,-73.98922,40.719917,-3887,https://guide.michelin.com/en/new-york-state/new-york/restaurant/contra,https://www.contranyc.com/,1 MICHELIN Star,89.0,NY,New York,Northeast,Contemporary
225,Gramercy Tavern,"42 E. 20th St., New York, 10003, United States",10003,New York,99.0,189.0,USD,"Contemporary, American",-73.988991,40.7387578,-42,https://guide.michelin.com/en/new-york-state/new-york/restaurant/gramercy-tavern,https://www.gramercytavern.com/,1 MICHELIN Star,144.0,NY,New York,Northeast,Contemporary
226,Gramercy Tavern,"42 E. 20th St., New York, 10003, United States",10003,New York,99.0,189.0,USD,"Contemporary, American",-73.988991,40.7387578,-42,https://guide.michelin.com/en/new-york-state/new-york/restaurant/gramercy-tavern,https://www.gramercytavern.com/,1 MICHELIN Star,144.0,NY,New York,Northeast,Contemporary
235,The Clocktower,"5 Madison Ave., New York, 10010, United States",10010,New York,65.0,100.0,USD,"Contemporary, English",-73.9875324,40.7413666,-3501,https://guide.michelin.com/en/new-york-state/new-york/restaurant/the-clocktower,https://www.theclocktowernyc.com/,1 MICHELIN Star,82.5,NY,New York,Northeast,Contemporary
236,The Clocktower,"5 Madison Ave., New York, 10010, United States",10010,New York,65.0,100.0,USD,"Contemporary, English",-73.9875324,40.7413666,-3501,https://guide.michelin.com/en/new-york-state/new-york/restaurant/the-clocktower,https://www.theclocktowernyc.com/,1 MICHELIN Star,82.5,NY,New York,Northeast,Contemporary
241,Next,"953 W. Fulton Market, Chicago, 60607, United States",60607,Chicago,175.0,255.0,USD,"Contemporary, Innovative",-87.6518812,41.8866924,https://www.nextrestaurant.com/,https://guide.michelin.com/en/illinois/chicago/restaurant/next,https://www.nextrestaurant.com/,1 MICHELIN Star,215.0,IL,Illinois,Midwest,Contemporary
243,Boka,"1729 N. Halsted St., Chicago, 60614, United States",60614,Chicago,95.0,165.0,USD,"Contemporary, American",-87.6482441,41.9135974,-5095,https://guide.michelin.com/en/illinois/chicago/restaurant/boka,https://www.bokachicago.com/,1 MICHELIN Star,130.0,IL,Illinois,Midwest,Contemporary
246,Elizabeth,"4835 N. Western, Unit D, Chicago, 60625, United States",60625,Chicago,150.0,150.0,USD,"Contemporary, American",-87.688736,41.969555,441,https://guide.michelin.com/en/illinois/chicago/restaurant/elizabeth,https://www.elizabeth-restaurant.com/,1 MICHELIN Star,150.0,IL,Illinois,Midwest,Contemporary
247,Goosefoot,"2656 W. Lawrence Ave., Chicago, 60625, United States",60625,Chicago,165.0,165.0,USD,"Contemporary, French Contemporary",-87.6959706,41.9687073,-6716,https://guide.michelin.com/en/illinois/chicago/restaurant/goosefoot,https://www.goosefoot.net/,1 MICHELIN Star,165.0,IL,Illinois,Midwest,Contemporary
248,Elske,"1350 W. Randolph Ave., Chicago, 60607, United States",60607,Chicago,90.0,115.0,USD,"Contemporary, American Contemporary",-87.6608602,41.8843534,-735,https://guide.michelin.com/en/illinois/chicago/restaurant/elske,https://www.elskerestaurant.com/,1 MICHELIN Star,102.5,IL,Illinois,Midwest,Contemporary
252,EL Ideas,"2419 W. 14th St., Chicago, 60618, United States",60618,Chicago,150.0,150.0,USD,"Contemporary, Creative",-87.68686,41.863,-7058,https://guide.michelin.com/en/illinois/chicago/restaurant/el-ideas,https://www.elideas.com/,1 MICHELIN Star,150.0,IL,Illinois,Midwest,Contemporary
254,North Pond,"2610 N. Cannon Dr., Chicago, 60614, United States",60614,Chicago,76.0,95.0,USD,"Contemporary, American",-87.6362118,41.9301645,-4549,https://guide.michelin.com/en/illinois/chicago/restaurant/north-pond,http://www.northpondrestaurant.com/,1 MICHELIN Star,85.5,IL,Illinois,Midwest,Contemporary
255,Temporis,"933 N. Ashland Ave., Chicago, 60622, United States",60622,Chicago,175.0,175.0,USD,"Contemporary, Modern Cuisine",-87.66725,41.898907,-3885,https://guide.michelin.com/en/illinois/chicago/restaurant/temporis,https://www.temporischicago.com/,1 MICHELIN Star,175.0,IL,Illinois,Midwest,Contemporary
256,Métier,"1015 7th St. NW, Washington, 20001, United States",20001,Washington,200.0,255.0,USD,"Contemporary, Modern French",-77.0218,38.903503,-7035,https://guide.michelin.com/en/district-of-columbia/washington-dc/restaurant/metier,https://www.metierdc.com/,1 MICHELIN Star,227.5,DC,District of Columbia,South,Contemporary
260,Tail Up Goat,"1827 Adams Mill Rd. NW, Washington, 20009, United States",20009,Washington,50.0,50.0,USD,Contemporary,-77.0428198,38.9232785,-9384,https://guide.michelin.com/en/district-of-columbia/washington-dc/restaurant/tail-up-goat,https://www.tailupgoat.com/,1 MICHELIN Star,50.0,DC,District of Columbia,South,Contemporary
262,Little Pearl,"921 Pennsylvania Ave. SE, Washington, 20003, United States",20003,Washington,85.0,85.0,USD,Contemporary,-76.9936368,38.8833557,-1284,https://guide.michelin.com/en/district-of-columbia/washington-dc/restaurant/little-pearl,https://www.littlepearldc.com/,1 MICHELIN Star,85.0,DC,District of Columbia,South,Contemporary
267,Rooster & Owl,"2436 14th St. NW, Washington, 20009, United States",20009,Washington,65.0,65.0,USD,"Contemporary, Fusion",-77.0321599,38.9214669,-3587,https://guide.michelin.com/en/district-of-columbia/washington-dc/restaurant/rooster-owl,https://www.roosterowl.com/,1 MICHELIN Star,65.0,DC,District of Columbia,South,Contemporary
271,Rose’s Luxury,"717 8th St. SE, Washington, 20003, United States",20003,Washington,75.0,85.0,USD,Contemporary,-76.9950588,38.8806478,-8267,https://guide.michelin.com/en/district-of-columbia/washington-dc/restaurant/rose-s-luxury,https://www.rosesluxury.com/,1 MICHELIN Star,80.0,DC,District of Columbia,South,Contemporary
273,Gravitas,"1401 Okie St. NE, Washington, 20002, United States",20002,Washington,80.0,150.0,USD,"Contemporary, American",-76.9845997,38.9146396,-7503,https://guide.michelin.com/en/district-of-columbia/washington-dc/restaurant/gravitas,https://www.gravitasdc.com/,1 MICHELIN Star,115.0,DC,District of Columbia,South,Contemporary
274,Kinship,"1015 7th St. NW, Washington, 20001, United States",20001,Washington,145.0,145.0,USD,"Contemporary, French Contemporary",-77.0218,38.903282,-7235,https://guide.michelin.com/en/district-of-columbia/washington-dc/restaurant/kinship,https://www.kinshipdc.com/,1 MICHELIN Star,145.0,DC,District of Columbia,South,Contemporary
335,Mix Mix Kitchen & Bar,"300 N. Main St., Santa Ana, 92701, United States",92701,Santa Ana,44.0,44.0,USD,"Contemporary, International",-117.867645,33.747177,-4280,https://guide.michelin.com/en/california/us-santa-ana/restaurant/mix-mix-kitchen-bar,https://www.mixmixkitchenbar.com/,Bib Gourmand,44.0,CA,California,West,Contemporary
350,Campfire,"2725 State St., Carlsbad, 92008, United States",92008,Carlsbad,35.0,70.0,USD,Contemporary,-117.3508896,33.1621181,-3998,https://guide.michelin.com/en/california/carlsbad/restaurant/campfire,https://www.thisiscampfire.com/,Bib Gourmand,52.5,CA,California,West,Contemporary
355,Kettner Exchange,"2001 Kettner Blvd., San Diego, 92101, United States",92101,San Diego,50.0,50.0,USD,"Contemporary, American Contemporary",-117.1697261,32.7253114,-637,https://guide.michelin.com/en/california/us-san-diego/restaurant/kettner-exchange,https://www.kettnerexchange.com/,Bib Gourmand,50.0,CA,California,West,Contemporary
393,Top Hatters Kitchen,"855 Macarthur Blvd., San Leandro, 94577, United States",94577,San Leandro,60.0,75.0,USD,"Contemporary, American Contemporary",-122.1417697,37.7373393,-9044,https://guide.michelin.com/en/california/san-leandro/restaurant/top-hatters-kitchen,http://tophatterskitchen.com,Bib Gourmand,67.5,CA,California,West,Contemporary
402,Animal,"435 N. Fairfax Ave., Los Angeles, 90036, United States",90036,Los Angeles,30.0,75.0,USD,"Contemporary, American",-118.3616297,34.0793889,-8684,https://guide.michelin.com/en/california/us-los-angeles/restaurant/animal,https://www.animalrestaurant.com/,Bib Gourmand,52.5,CA,California,West,Contemporary
439,Trestle,"531 Jackson St., San Francisco, 94133, United States",94133,San Francisco,38.0,48.0,USD,"Contemporary, Californian",-122.40457,37.796303,-279,https://guide.michelin.com/en/california/san-francisco/restaurant/trestle,https://www.trestlesf.com/,Bib Gourmand,43.0,CA,California,West,Contemporary
446,Canon,"1719 34th St., Sacramento, 95816, United States",95816,Sacramento,50.0,50.0,USD,Contemporary,-121.4650099,38.5639044,-986,https://guide.michelin.com/en/california/us-sacramento/restaurant/canon,https://www.canoneastsac.com/,Bib Gourmand,50.0,CA,California,West,Contemporary
515,Runner & Stone,"285 Third Ave., New York, 11215, United States",11215,New York,50.0,50.0,USD,Contemporary,-73.98619,40.677254,-2218,https://guide.michelin.com/en/new-york-state/new-york/restaurant/runner-stone,https://www.runnerandstone.com/,Bib Gourmand,50.0,NY,New York,Northeast,Contemporary
516,Runner & Stone,"285 Third Ave., New York, 11215, United States",11215,New York,50.0,50.0,USD,Contemporary,-73.98619,40.677254,-2218,https://guide.michelin.com/en/new-york-state/new-york/restaurant/runner-stone,https://www.runnerandstone.com/,Bib Gourmand,50.0,NY,New York,Northeast,Contemporary
517,Ruffian,"125 E. 7th St., New York, 10009, United States",10009,New York,40.0,40.0,USD,"Contemporary, Creative",-73.984228,40.7263854,-420,https://guide.michelin.com/en/new-york-state/new-york/restaurant/ruffian,https://ruffiannyc.com/,Bib Gourmand,40.0,NY,New York,Northeast,Contemporary
518,Ruffian,"125 E. 7th St., New York, 10009, United States",10009,New York,40.0,40.0,USD,"Contemporary, Creative",-73.984228,40.7263854,-420,https://guide.michelin.com/en/new-york-state/new-york/restaurant/ruffian,https://ruffiannyc.com/,Bib Gourmand,40.0,NY,New York,Northeast,Contemporary
529,Prune,"54 E. 1st St., New York, 10003, United States",10003,New York,50.0,50.0,USD,Contemporary,-73.98921,40.72381,-5686,https://guide.michelin.com/en/new-york-state/new-york/restaurant/prune,https://www.prunerestaurant.com/,Bib Gourmand,50.0,NY,New York,Northeast,Contemporary
530,Prune,"54 E. 1st St., New York, 10003, United States",10003,New York,50.0,50.0,USD,Contemporary,-73.98921,40.72381,-5686,https://guide.michelin.com/en/new-york-state/new-york/restaurant/prune,https://www.prunerestaurant.com/,Bib Gourmand,50.0,NY,New York,Northeast,Contemporary
541,Olmsted,"659 Vanderbilt Ave., New York, 11238, United States",11238,New York,100.0,100.0,USD,"Contemporary, American Contemporary",-73.968994,40.677097,-1444,https://guide.michelin.com/en/new-york-state/new-york/restaurant/olmsted,http://www.olmstednyc.com/,Bib Gourmand,100.0,NY,New York,Northeast,Contemporary
542,Olmsted,"659 Vanderbilt Ave., New York, 11238, United States",11238,New York,100.0,100.0,USD,"Contemporary, American Contemporary",-73.968994,40.677097,-1444,https://guide.michelin.com/en/new-york-state/new-york/restaurant/olmsted,http://www.olmstednyc.com/,Bib Gourmand,100.0,NY,New York,Northeast,Contemporary
586,Klein's,"97 Wythe Ave., New York, 11249, United States",11249,New York,44.0,44.0,USD,"Contemporary, Californian",-73.9587875,40.7208512,-5647,https://guide.michelin.com/en/new-york-state/new-york/restaurant/klein-s,https://www.thehoxton.com/,Bib Gourmand,44.0,NY,New York,Northeast,Contemporary
587,Klein's,"97 Wythe Ave., New York, 11249, United States",11249,New York,44.0,44.0,USD,"Contemporary, Californian",-73.9587875,40.7208512,-5647,https://guide.michelin.com/en/new-york-state/new-york/restaurant/klein-s,https://www.thehoxton.com/,Bib Gourmand,44.0,NY,New York,Northeast,Contemporary
673,Bellwether,"47-25 Vernon Blvd., New York, 11101, United States",11101,New York,30.0,50.0,USD,Contemporary,-73.95333,40.74487,-1931,https://guide.michelin.com/en/new-york-state/new-york/restaurant/bellwether,https://www.bellwethernyc.com/,Bib Gourmand,40.0,NY,New York,Northeast,Contemporary
674,Bellwether,"47-25 Vernon Blvd., New York, 11101, United States",11101,New York,30.0,50.0,USD,Contemporary,-73.95333,40.74487,-1931,https://guide.michelin.com/en/new-york-state/new-york/restaurant/bellwether,https://www.bellwethernyc.com/,Bib Gourmand,40.0,NY,New York,Northeast,Contemporary
721,Girl & The Goat,"809 W. Randolph St., Chicago, 60607, United States",60607,Chicago,70.0,70.0,USD,"Contemporary, American",-87.64785,41.88418,-5442,https://guide.michelin.com/en/illinois/chicago/restaurant/girl-the-goat,https://www.girlandthegoat.com/,Bib Gourmand,70.0,IL,Illinois,Midwest,Contemporary
729,Untitled Supper Club,"111 W. Kinzie St., Chicago, 60654, United States",60654,Chicago,35.0,60.0,USD,Contemporary,-87.63153,41.8891737,-1079,https://guide.michelin.com/en/illinois/chicago/restaurant/untitled-supper-club,https://www.untitledchicago.com/,Bib Gourmand,47.5,IL,Illinois,Midwest,Contemporary
783,Residents Cafe & Bar,"1306 18th St. NW, Washington, 20036, United States",20036,Washington,40.0,45.0,USD,Contemporary,-77.0417544,38.907818,-8963,https://guide.michelin.com/en/district-of-columbia/washington-dc/restaurant/residents-cafe-bar,https://www.residentsdc.com/,Bib Gourmand,42.5,DC,District of Columbia,South,Contemporary
785,Ellē,"3221 Mt. Pleasant St. NW, Washington, 20010, United States",20010,Washington,13.0,85.0,USD,"Contemporary, Bakery",-77.03842,38.93187,510,https://guide.michelin.com/en/district-of-columbia/washington-dc/restaurant/elle,https://www.eatatelle.com/,Bib Gourmand,49.0,DC,District of Columbia,South,Contemporary
