,Name,Address,Zip,Location,MinPrice,MaxPrice,Currency,Cuisine,Longitude,Latitude,PhoneNumber,Url,WebsiteUrl,Award,AveragePrice,state_id,state_name,region,General_Category
33,Acquerello,"1722 Sacramento St., San Francisco, 94109, United States",94109,San Francisco,150.0,250.0,USD,"Italian, Contemporary",-122.42131,37.79167,-4584,https://guide.michelin.com/en/california/san-francisco/restaurant/acquerello,https://www.acquerellosf.com/,2 MICHELIN Stars,200.0,CA,California,West,Italian
103,Gucci Osteria da Massimo Bottura,"347 N. Rodeo Dr., Beverly Hills, 90210, United States",90210,Beverly Hills,130.0,195.0,USD,"Italian, Contemporary",-118.4024313,34.0683993,-6666,https://guide.michelin.com/en/california/beverly-hills/restaurant/gucci-osteria-da-massimo-bottura-1190961,https://www.gucci.com/us/en/store/osteria-bottura-beverly-hills/,1 MICHELIN Star,162.5,CA,California,West,Italian
104,Gucci Osteria da Massimo Bottura,"347 N. Rodeo Dr., Beverly Hills, 90210, United States",90210,Beverly Hills,130.0,195.0,USD,"Italian, Contemporary",-118.4024313,34.0683993,-6666,https://guide.michelin.com/en/california/beverly-hills/restaurant/gucci-osteria-da-massimo-bottura-1190961,https://www.gucci.com/us/en/store/osteria-bottura-beverly-hills/,1 MICHELIN Star,162.5,CA,California,West,Italian
112,Osteria Mozza,"6602 Melrose Ave., Los Angeles, 90038, United States",90038,Los Angeles,115.0,115.0,USD,Italian,-118.3386857,34.0834246,926,https://guide.michelin.com/en/california/us-los-angeles/restaurant/osteria-mozza,https://la.osteriamozza.com/,1 MICHELIN Star,115.0,CA,California,West,Italian
125,Sorrel,"3228 Sacramento St., San Francisco, 94115, United States",94115,San Francisco,110.0,148.0,USD,"Italian, Californian",-122.44614,37.788334,-2875,https://guide.michelin.com/en/california/san-francisco/restaurant/sorrel,https://www.sorrelrestaurant.com/,1 MICHELIN Star,129.0,CA,California,West,Italian
133,SPQR,"1911 Fillmore St., San Francisco, 94115, United States",94115,San Francisco,39.0,120.0,USD,"Italian, Contemporary",-122.4336712,37.7873703,-7135,https://guide.michelin.com/en/california/san-francisco/restaurant/spqr,https://www.spqrsf.com/,1 MICHELIN Star,79.5,CA,California,West,Italian
209,Ai Fiori,"400 Fifth Ave., New York, 10018, United States",10018,New York,54.0,150.0,USD,Italian,-73.98357,40.75013,-8061,https://guide.michelin.com/en/new-york-state/new-york/restaurant/ai-fiori,https://www.aifiorinyc.com/,1 MICHELIN Star,102.0,NY,New York,Northeast,Italian
210,Ai Fiori,"400 Fifth Ave., New York, 10018, United States",10018,New York,54.0,150.0,USD,Italian,-73.98357,40.75013,-8061,https://guide.michelin.com/en/new-york-state/new-york/restaurant/ai-fiori,https://www.aifiorinyc.com/,1 MICHELIN Star,102.0,NY,New York,Northeast,Italian
211,Rezdôra,"27 E. 20th St., New York, 10003, United States",10003,New York,60.0,90.0,USD,"Italian, Emilian",-73.9890088,40.7390046,-8136,https://guide.michelin.com/en/new-york-state/new-york/restaurant/rezdora-osteria-emiliana,https://www.rezdora.nyc/,1 MICHELIN Star,75.0,NY,New York,Northeast,Italian
212,Rezdôra,"27 E. 20th St., New York, 10003, United States",10003,New York,60.0,90.0,USD,"Italian, Emilian",-73.9890088,40.7390046,-8136,https://guide.michelin.com/en/new-york-state/new-york/restaurant/rezdora-osteria-emiliana,https://www.rezdora.nyc/,1 MICHELIN Star,75.0,NY,New York,Northeast,Italian
233,Don Angie,"103 Greenwich Ave., New York, 10014, United States",10014,New York,75.0,75.0,USD,"Italian, American",-74.0019745,40.7377741,-8561,https://guide.michelin.com/en/new-york-state/new-york/restaurant/don-angie,https://www.donangie.com/,1 MICHELIN Star,75.0,NY,New York,Northeast,Italian
234,Don Angie,"103 Greenwich Ave., New York, 10014, United States",10014,New York,75.0,75.0,USD,"Italian, American",-74.0019745,40.7377741,-8561,https://guide.michelin.com/en/new-york-state/new-york/restaurant/don-angie,https://www.donangie.com/,1 MICHELIN Star,75.0,NY,New York,Northeast,Italian
239,Carbone,"181 Thompson St., New York, 10003, United States",10003,New York,150.0,150.0,USD,"Italian, Italian-American",-74.00017,40.727966,-2042,https://guide.michelin.com/en/new-york-state/new-york/restaurant/carbone,https://www.carbonenewyork.com/,1 MICHELIN Star,150.0,NY,New York,Northeast,Italian
240,Carbone,"181 Thompson St., New York, 10003, United States",10003,New York,150.0,150.0,USD,"Italian, Italian-American",-74.00017,40.727966,-2042,https://guide.michelin.com/en/new-york-state/new-york/restaurant/carbone,https://www.carbonenewyork.com/,1 MICHELIN Star,150.0,NY,New York,Northeast,Italian
261,Fiola,"601 Pennsylvania Ave. NW, Washington, 20004, United States",20004,Washington,150.0,225.0,USD,"Italian, Contemporary",-77.01991,38.89283,-2314,https://guide.michelin.com/en/district-of-columbia/washington-dc/restaurant/fiola,https://www.fioladc.com/,1 MICHELIN Star,187.5,DC,District of Columbia,South,Italian
265,Masseria,"1340 4th St. NE, Washington, 20002, United States",20002,Washington,168.0,350.0,USD,"Italian, Regional Cuisine",-76.99908,38.909504,-736,https://guide.michelin.com/en/district-of-columbia/washington-dc/restaurant/masseria,https://www.masseria-dc.com/,1 MICHELIN Star,259.0,DC,District of Columbia,South,Italian
290,Mentone,"174 Aptos Village Way, Aptos, 95003, United States",95003,Aptos,30.0,44.0,USD,"Italian, Californian",-121.8995341,36.9789673,-2917,https://guide.michelin.com/en/california/aptos/restaurant/mentone,https://www.mentonerestaurant.com/,Bib Gourmand,37.0,CA,California,West,Italian
291,Mentone,"174 Aptos Village Way, Aptos, 95003, United States",95003,Aptos,30.0,44.0,USD,"Italian, Californian",-121.8995341,36.9789673,-2917,https://guide.michelin.com/en/california/aptos/restaurant/mentone,https://www.mentonerestaurant.com/,Bib Gourmand,37.0,CA,California,West,Italian
292,Mentone,"174 Aptos Village Way, Aptos, 95003, United States",95003,Aptos,30.0,44.0,USD,"Italian, Californian",-121.8995341,36.9789673,-2917,https://guide.michelin.com/en/california/aptos/restaurant/mentone,https://www.mentonerestaurant.com/,Bib Gourmand,37.0,CA,California,West,Italian
293,Mentone,"174 Aptos Village Way, Aptos, 95003, United States",95003,Aptos,30.0,44.0,USD,"Italian, Californian",-121.8995341,36.9789673,-2917,https://guide.michelin.com/en/california/aptos/restaurant/mentone,https://www.mentonerestaurant.com/,Bib Gourmand,37.0,CA,California,West,Italian
349,Oliver's Osteria Mare e Monti,"853 Laguna Canyon Rd., Laguna Beach, 92651, United States",92651,Laguna Beach,40.0,42.0,USD,"Italian, Emilian",-117.7781668,33.550877,973,https://guide.michelin.com/en/california/laguna-beach/restaurant/oliver-s-osteria-mare-e-monti,https://www.oliversosteria.com/,Bib Gourmand,41.0,CA,California,West,Italian
353,Pausa,"223 E. 4th Ave., San Mateo, 94401, United States",94401,San Mateo,44.0,44.0,USD,"Italian, Regional Cuisine",-122.3220038,37.5645894,457,https://guide.michelin.com/en/california/san-mateo/restaurant/pausa,https://www.pausasanmateo.com/,Bib Gourmand,44.0,CA,California,West,Italian
357,Cucina Urbana,"505 Laurel St., San Diego, 92101, United States",92101,San Diego,50.0,50.0,USD,Italian,-117.160145,32.7312497,-842,https://guide.michelin.com/en/california/us-san-diego/restaurant/cucina-urbana,https://www.urbankitchengroup.com/,Bib Gourmand,50.0,CA,California,West,Italian
359,Solare,"2820 Roosevelt Rd., San Diego, 92106, United States",92106,San Diego,50.0,50.0,USD,"Italian, Tuscan",-117.213925,32.737253,-8321,https://guide.michelin.com/en/california/us-san-diego/restaurant/solare,https://www.solarelounge.com/,Bib Gourmand,50.0,CA,California,West,Italian
360,Cesarina,"4161 Voltaire St., San Diego, 92107, United States",92107,San Diego,60.0,60.0,USD,Italian,-117.234556,32.7434966,-4829,https://guide.michelin.com/en/california/us-san-diego/restaurant/cesarina,http://www.cesarinarestaurant.com,Bib Gourmand,60.0,CA,California,West,Italian
361,Ciccia Osteria,"2233 Logan Ave., San Diego, 92113, United States",92113,San Diego,42.0,42.0,USD,"Italian, Milanese",-117.1388338,32.6974548,-3124,https://guide.michelin.com/en/california/us-san-diego/restaurant/ciccia-osteria,http://www.cicciasandiego.com,Bib Gourmand,42.0,CA,California,West,Italian
367,MAMA Oakland,"388 Grand Ave., Oakland, 94610, United States",94610,Oakland,35.0,35.0,USD,"Italian, Contemporary",-122.2542995,37.8090021,-5836,https://guide.michelin.com/en/california/oakland/restaurant/mama-oakland,http://mama-oakland.com,Bib Gourmand,35.0,CA,California,West,Italian
368,MAMA Oakland,"388 Grand Ave., Oakland, 94610, United States",94610,Oakland,35.0,35.0,USD,"Italian, Contemporary",-122.2542995,37.8090021,-5836,https://guide.michelin.com/en/california/oakland/restaurant/mama-oakland,http://mama-oakland.com,Bib Gourmand,35.0,CA,California,West,Italian
388,Colapasta,"1241 5th St., Santa Monica, 90401, United States",90401,Santa Monica,6.0,45.0,USD,Italian,-118.4962761,34.0190328,-7336,https://guide.michelin.com/en/california/santa-monica/restaurant/colapasta,http://www.colapasta.com,Bib Gourmand,25.5,CA,California,West,Italian
392,Union,"37 East Union St., Pasadena, 91103, United States",91103,Pasadena,45.0,75.0,USD,Italian,-118.14981,34.1468,-5010,https://guide.michelin.com/en/california/pasadena/restaurant/union,https://www.unionpasadena.com/,Bib Gourmand,60.0,CA,California,West,Italian
405,Jon & Vinny’s,"412 N. Fairfax Ave., Los Angeles, 90036, United States",90036,Los Angeles,50.0,50.0,USD,Italian,-118.3612687,34.0786428,-2380,https://guide.michelin.com/en/california/us-los-angeles/restaurant/jon-vinny%E2%80%99s,https://www.jonandvinnys.com/,Bib Gourmand,50.0,CA,California,West,Italian
410,Rossoblu,"1124 San Julian St., Los Angeles, 90015, United States",90015,Los Angeles,44.0,44.0,USD,"Italian, Regional Cuisine",-118.25355,34.035248,-635,https://guide.michelin.com/en/california/us-los-angeles/restaurant/rossoblu,https://www.rossoblula.com/,Bib Gourmand,44.0,CA,California,West,Italian
417,The Factory Kitchen,"1300 Factory Pl., Ste. 101, Los Angeles, 90013, United States",90013,Los Angeles,15.0,44.0,USD,"Italian, Regional Cuisine",-118.23589,34.03912,-5783,https://guide.michelin.com/en/california/us-los-angeles/restaurant/the-factory-kitchen,https://www.thefactorykitchen.com/,Bib Gourmand,29.5,CA,California,West,Italian
421,Maccheroni Republic,"332 S. Broadway, Los Angeles, 90013, United States",90013,Los Angeles,16.0,44.0,USD,"Italian, Italian-American",-118.248726,34.050137,-8858,https://guide.michelin.com/en/california/us-los-angeles/restaurant/maccheroni-republic,https://www.maccheronirepublic.com/,Bib Gourmand,30.0,CA,California,West,Italian
436,Cotogna,"490 Pacific Ave., San Francisco, 94133, United States",94133,San Francisco,80.0,80.0,USD,Italian,-122.4034608,37.7974268,-7868,https://guide.michelin.com/en/california/san-francisco/restaurant/cotogna,https://www.cotognasf.com/,Bib Gourmand,80.0,CA,California,West,Italian
449,iTalico,"341 California Ave., Palo Alto, 94306, United States",94306,Palo Alto,42.0,42.0,USD,"Italian, Regional Cuisine",-122.1443652,37.4269959,-8439,https://guide.michelin.com/en/california/palo-alto/restaurant/italico,https://www.italicorestaurant.com/,Bib Gourmand,42.0,CA,California,West,Italian
451,zero otto nove,"2357 Arthur Ave., New York, 10458, United States",10458,New York,50.0,50.0,USD,"Italian, Campanian",-73.8882875,40.8549046,471,https://guide.michelin.com/en/new-york-state/new-york/restaurant/zero-otto-nove,https://www.roberto089.com/,Bib Gourmand,50.0,NY,New York,Northeast,Italian
452,zero otto nove,"2357 Arthur Ave., New York, 10458, United States",10458,New York,50.0,50.0,USD,"Italian, Campanian",-73.8882875,40.8549046,471,https://guide.michelin.com/en/new-york-state/new-york/restaurant/zero-otto-nove,https://www.roberto089.com/,Bib Gourmand,50.0,NY,New York,Northeast,Italian
461,Vinum,"704 Bay St., New York, 10304, United States",10304,New York,50.0,50.0,USD,Italian,-74.074715,40.624893,-7196,https://guide.michelin.com/en/new-york-state/new-york/restaurant/vinum,https://www.vinumnyc.com/,Bib Gourmand,50.0,NY,New York,Northeast,Italian
462,Vinum,"704 Bay St., New York, 10304, United States",10304,New York,50.0,50.0,USD,Italian,-74.074715,40.624893,-7196,https://guide.michelin.com/en/new-york-state/new-york/restaurant/vinum,https://www.vinumnyc.com/,Bib Gourmand,50.0,NY,New York,Northeast,Italian
463,Via Vai,"31-09 23rd Ave., New York, 11105, United States",11105,New York,50.0,50.0,USD,Italian,-73.9127312,40.7743579,-3599,https://guide.michelin.com/en/new-york-state/new-york/restaurant/via-vai,https://www.viavai-ny.com/,Bib Gourmand,50.0,NY,New York,Northeast,Italian
464,Via Vai,"31-09 23rd Ave., New York, 11105, United States",11105,New York,50.0,50.0,USD,Italian,-73.9127312,40.7743579,-3599,https://guide.michelin.com/en/new-york-state/new-york/restaurant/via-vai,https://www.viavai-ny.com/,Bib Gourmand,50.0,NY,New York,Northeast,Italian
474,Tra Di Noi,"622 E. 187th St., New York, 10458, United States",10458,New York,50.0,50.0,USD,"Italian, Italian-American",-73.8867319,40.855078,-361,https://guide.michelin.com/en/new-york-state/new-york/restaurant/tra-di-noi,http://www.tradinoi.com/,Bib Gourmand,50.0,NY,New York,Northeast,Italian
475,Tra Di Noi,"622 E. 187th St., New York, 10458, United States",10458,New York,50.0,50.0,USD,"Italian, Italian-American",-73.8867319,40.855078,-361,https://guide.michelin.com/en/new-york-state/new-york/restaurant/tra-di-noi,http://www.tradinoi.com/,Bib Gourmand,50.0,NY,New York,Northeast,Italian
507,San Matteo,"1739 Second Ave., New York, 10128, United States",10128,New York,25.0,25.0,USD,Italian,-73.950096,40.78042,-6157,https://guide.michelin.com/en/new-york-state/new-york/restaurant/san-matteo,https://www.sanmatteopanuozzo.com/,Bib Gourmand,25.0,NY,New York,Northeast,Italian
508,San Matteo,"1739 Second Ave., New York, 10128, United States",10128,New York,25.0,25.0,USD,Italian,-73.950096,40.78042,-6157,https://guide.michelin.com/en/new-york-state/new-york/restaurant/san-matteo,https://www.sanmatteopanuozzo.com/,Bib Gourmand,25.0,NY,New York,Northeast,Italian
519,Rubirosa,"235 Mulberry St., New York, 10012, United States",10012,New York,50.0,50.0,USD,"Italian, Italian-American",-73.9962,40.722725,-253,https://guide.michelin.com/en/new-york-state/new-york/restaurant/rubirosa,https://www.rubirosanyc.com/,Bib Gourmand,50.0,NY,New York,Northeast,Italian
520,Rubirosa,"235 Mulberry St., New York, 10012, United States",10012,New York,50.0,50.0,USD,"Italian, Italian-American",-73.9962,40.722725,-253,https://guide.michelin.com/en/new-york-state/new-york/restaurant/rubirosa,https://www.rubirosanyc.com/,Bib Gourmand,50.0,NY,New York,Northeast,Italian
525,Rafele Rye,"26 Purchase St., Rye, 10580, United States",10580,Rye,50.0,50.0,USD,"Italian, Italian-American",-73.6841905,40.9824806,-6984,https://guide.michelin.com/en/new-york-state/us-rye/restaurant/rafele-rye,https://www.rafelerye.com/,Bib Gourmand,50.0,NY,New York,Northeast,Italian
545,Norma Gastronomia Siciliana,"438 Third Ave., New York, 10016, United States",10016,New York,52.0,52.0,USD,"Italian, Sicilian",-73.9797615,40.7435537,-277,https://guide.michelin.com/en/new-york-state/new-york/restaurant/norma-gastronomia-siciliana,https://www.normarestaurant.com/,Bib Gourmand,52.0,NY,New York,Northeast,Italian
546,Norma Gastronomia Siciliana,"438 Third Ave., New York, 10016, United States",10016,New York,52.0,52.0,USD,"Italian, Sicilian",-73.9797615,40.7435537,-277,https://guide.michelin.com/en/new-york-state/new-york/restaurant/norma-gastronomia-siciliana,https://www.normarestaurant.com/,Bib Gourmand,52.0,NY,New York,Northeast,Italian
563,Maria Restaurant,"11 Huguenot St., New Rochelle, 10801, United States",10801,New Rochelle,22.0,45.0,USD,"Italian, Italian-American",-73.7736953,40.914265,1272,https://guide.michelin.com/en/new-york-state/new-rochelle/restaurant/maria-restaurant,https://www.marianewrochelle.com/,Bib Gourmand,33.5,NY,New York,Northeast,Italian
624,Forsythia,"9 Stanton St., New York, 10002, United States",10002,New York,60.0,60.0,USD,Italian,-73.9924978,40.7225817,-4210,https://guide.michelin.com/en/new-york-state/new-york/restaurant/forsythia,https://www.forsythianyc.com/,Bib Gourmand,60.0,NY,New York,Northeast,Italian
625,Forsythia,"9 Stanton St., New York, 10002, United States",10002,New York,60.0,60.0,USD,Italian,-73.9924978,40.7225817,-4210,https://guide.michelin.com/en/new-york-state/new-york/restaurant/forsythia,https://www.forsythianyc.com/,Bib Gourmand,60.0,NY,New York,Northeast,Italian
628,Enzo’s of Williamsbridge,"1998 Williamsbridge Rd., New York, 10451, United States",10451,New York,50.0,50.0,USD,"Italian, Italian-American",-73.8542303,40.8541844,-2519,https://guide.michelin.com/en/new-york-state/new-york/restaurant/enzo-s,https://www.enzosbronxrestaurant.com/,Bib Gourmand,50.0,NY,New York,Northeast,Italian
629,Enzo’s of Williamsbridge,"1998 Williamsbridge Rd., New York, 10451, United States",10451,New York,50.0,50.0,USD,"Italian, Italian-American",-73.8542303,40.8541844,-2519,https://guide.michelin.com/en/new-york-state/new-york/restaurant/enzo-s,https://www.enzosbronxrestaurant.com/,Bib Gourmand,50.0,NY,New York,Northeast,Italian
630,Enoteca Maria,"27 Hyatt St., New York, 10301, United States",10301,New York,50.0,50.0,USD,Italian,-74.077255,40.64187,-1506,https://guide.michelin.com/en/new-york-state/new-york/restaurant/enoteca-maria,https://www.enotecamaria.com/,Bib Gourmand,50.0,NY,New York,Northeast,Italian
631,Enoteca Maria,"27 Hyatt St., New York, 10301, United States",10301,New York,50.0,50.0,USD,Italian,-74.077255,40.64187,-1506,https://guide.michelin.com/en/new-york-state/new-york/restaurant/enoteca-maria,https://www.enotecamaria.com/,Bib Gourmand,50.0,NY,New York,Northeast,Italian
645,Cotenna,"21 Bedford St., New York, 10014, United States",10014,New York,50.0,50.0,USD,Italian,-74.00354,40.729053,610,https://guide.michelin.com/en/new-york-state/new-york/restaurant/cotenna,https://www.cotenna.com/,Bib Gourmand,50.0,NY,New York,Northeast,Italian
646,Cotenna,"21 Bedford St., New York, 10014, United States",10014,New York,50.0,50.0,USD,Italian,-74.00354,40.729053,610,https://guide.michelin.com/en/new-york-state/new-york/restaurant/cotenna,https://www.cotenna.com/,Bib Gourmand,50.0,NY,New York,Northeast,Italian
647,Convivium Osteria,"68 Fifth Ave., New York, 11217, United States",11217,New York,50.0,50.0,USD,"Italian, Sardinian",-73.977394,40.68102,-972,https://guide.michelin.com/en/new-york-state/new-york/restaurant/convivium-osteria,https://www.conviviumosteria.com/,Bib Gourmand,50.0,NY,New York,Northeast,Italian
648,Convivium Osteria,"68 Fifth Ave., New York, 11217, United States",11217,New York,50.0,50.0,USD,"Italian, Sardinian",-73.977394,40.68102,-972,https://guide.michelin.com/en/new-york-state/new-york/restaurant/convivium-osteria,https://www.conviviumosteria.com/,Bib Gourmand,50.0,NY,New York,Northeast,Italian
663,Café Alaia,"128 Garth Rd., Scarsdale, 10583, United States",10583,Scarsdale,50.0,50.0,USD,"Italian, Italian-American",-73.8099321,40.9868746,-1811,https://guide.michelin.com/en/new-york-state/scarsdale/restaurant/cafe-alaia,https://www.cafealaia.com/,Bib Gourmand,50.0,NY,New York,Northeast,Italian
664,Café Alaia,"128 Garth Rd., Scarsdale, 10583, United States",10583,Scarsdale,50.0,50.0,USD,"Italian, Italian-American",-73.8099321,40.9868746,-1811,https://guide.michelin.com/en/new-york-state/scarsdale/restaurant/cafe-alaia,https://www.cafealaia.com/,Bib Gourmand,50.0,NY,New York,Northeast,Italian
677,Bar Primi,"325 Bowery, New York, 10003, United States",10003,New York,50.0,50.0,USD,Italian,-73.99188,40.725666,-8108,https://guide.michelin.com/en/new-york-state/new-york/restaurant/bar-primi,https://www.barprimi.com/,Bib Gourmand,50.0,NY,New York,Northeast,Italian
678,Bar Primi,"325 Bowery, New York, 10003, United States",10003,New York,50.0,50.0,USD,Italian,-73.99188,40.725666,-8108,https://guide.michelin.com/en/new-york-state/new-york/restaurant/bar-primi,https://www.barprimi.com/,Bib Gourmand,50.0,NY,New York,Northeast,Italian
686,Ammazzacaffè,"702 Grand St., New York, 11211, United States",11211,New York,50.0,50.0,USD,"Italian, Contemporary",-73.9450002,40.7115772,-1196,https://guide.michelin.com/en/new-york-state/new-york/restaurant/ammazzacaffe,https://www.ammazzacaffe.nyc/,Bib Gourmand,50.0,NY,New York,Northeast,Italian
687,Ammazzacaffè,"702 Grand St., New York, 11211, United States",11211,New York,50.0,50.0,USD,"Italian, Contemporary",-73.9450002,40.7115772,-1196,https://guide.michelin.com/en/new-york-state/new-york/restaurant/ammazzacaffe,https://www.ammazzacaffe.nyc/,Bib Gourmand,50.0,NY,New York,Northeast,Italian
699,Daisies,"2523 N. Milwaukee Ave., Chicago, 60647, United States",60647,Chicago,25.0,60.0,USD,Italian,-87.7042155,41.9272907,-559,https://guide.michelin.com/en/illinois/chicago/restaurant/daisies,https://www.daisieschicago.com/,Bib Gourmand,42.5,IL,Illinois,Midwest,Italian
701,Nella Pizza e Pasta,"1125 E. 55th St., Chicago, 60615, United States",60615,Chicago,44.0,44.0,USD,"Italian, Pizza",-87.5982341,41.7950081,527,https://guide.michelin.com/en/illinois/chicago/restaurant/nella-pizza-e-pasta,https://www.nellachicago.com/,Bib Gourmand,44.0,IL,Illinois,Midwest,Italian
708,Ceres’ Table,"3124 N. Broadway, Chicago, 60657, United States",60657,Chicago,50.0,50.0,USD,Italian,-87.644407,41.938784,-3169,https://guide.michelin.com/en/illinois/chicago/restaurant/ceres-table,https://www.cerestable.com/,Bib Gourmand,50.0,IL,Illinois,Midwest,Italian
715,Ciccio Mio,"226 W. Kinzie St., Chicago, 60654, United States",60654,Chicago,75.0,75.0,USD,"Italian, American",-87.6353304,41.8892692,-2800,https://guide.michelin.com/en/illinois/chicago/restaurant/ciccio-mio,http://cicciomio.com,Bib Gourmand,75.0,IL,Illinois,Midwest,Italian
741,Joe's Imports,"813 W. Fulton Market, Chicago, 60607, United States",60607,Chicago,35.0,40.0,USD,"Italian, American",-87.6480616,41.8868774,-1174,https://guide.michelin.com/en/illinois/chicago/restaurant/joe-s-imports,https://www.joeswineimports.com/,Bib Gourmand,37.5,IL,Illinois,Midwest,Italian
769,Sfoglina,"4445 Connecticut Ave. NW, Washington, 20008, United States",20008,Washington,50.0,50.0,USD,Italian,-77.0644436,38.9466859,-725,https://guide.michelin.com/en/district-of-columbia/washington-dc/restaurant/sfoglina,http://www.sfoglinadc.com/,Bib Gourmand,50.0,DC,District of Columbia,South,Italian
775,The Red Hen,"1822 1st St. NW, Washington, 20001, United States",20001,Washington,50.0,50.0,USD,Italian,-77.01227,38.914898,-2344,https://guide.michelin.com/en/district-of-columbia/washington-dc/restaurant/the-red-hen,https://www.theredhendc.com/,Bib Gourmand,50.0,DC,District of Columbia,South,Italian
