,Name,Address,Zip,Location,MinPrice,MaxPrice,Currency,Cuisine,Longitude,Latitude,PhoneNumber,Url,WebsiteUrl,Award,AveragePrice,state_id,state_name,region,General_Category
35,Californios,"355 11th St., San Francisco, 94103, United States",94103,San Francisco,223.0,223.0,USD,"Mexican, Contemporary",-122.4131414,37.7712406,-336,https://guide.michelin.com/en/california/san-francisco/restaurant/californios,https://www.californiossf.com/,2 MICHELIN Stars,223.0,CA,California,West,Mexican
141,Taco María,"3313 Hyland Blvd., Ste. C21, Costa Mesa, 92626, United States",92626,Costa Mesa,89.0,89.0,USD,"Mexican, Contemporary",-117.9257477,33.6949591,-7268,https://guide.michelin.com/en/california/us-costa-mesa/restaurant/taco-maria,https://www.tacomaria.com/,1 MICHELIN Star,89.0,CA,California,West,Mexican
155,Claro,"284 Third Ave., New York, 11215, United States",11215,New York,50.0,50.0,USD,Mexican,-73.98615,40.677395,-2500,https://guide.michelin.com/en/new-york-state/new-york/restaurant/claro,https://www.clarobk.com/,1 MICHELIN Star,50.0,NY,New York,Northeast,Mexican
156,Claro,"284 Third Ave., New York, 11215, United States",11215,New York,50.0,50.0,USD,Mexican,-73.98615,40.677395,-2500,https://guide.michelin.com/en/new-york-state/new-york/restaurant/claro,https://www.clarobk.com/,1 MICHELIN Star,50.0,NY,New York,Northeast,Mexican
191,Oxomoco,"128 Greenpoint Ave., New York, 11222, United States",11222,New York,50.0,75.0,USD,"Mexican, Contemporary",-73.9555039,40.7300224,-3222,https://guide.michelin.com/en/new-york-state/new-york/restaurant/oxomoco,https://www.oxomoconyc.com/,1 MICHELIN Star,62.5,NY,New York,Northeast,Mexican
192,Oxomoco,"128 Greenpoint Ave., New York, 11222, United States",11222,New York,50.0,75.0,USD,"Mexican, Contemporary",-73.9555039,40.7300224,-3222,https://guide.michelin.com/en/new-york-state/new-york/restaurant/oxomoco,https://www.oxomoconyc.com/,1 MICHELIN Star,62.5,NY,New York,Northeast,Mexican
227,Casa Enrique,"5-48 49th Ave., New York, 11101, United States",11101,New York,60.0,60.0,USD,"Mexican, Regional Cuisine",-73.9542808,40.7434588,-5141,https://guide.michelin.com/en/new-york-state/new-york/restaurant/casa-enrique,https://www.henrinyc.com/,1 MICHELIN Star,60.0,NY,New York,Northeast,Mexican
228,Casa Enrique,"5-48 49th Ave., New York, 11101, United States",11101,New York,60.0,60.0,USD,"Mexican, Regional Cuisine",-73.9542808,40.7434588,-5141,https://guide.michelin.com/en/new-york-state/new-york/restaurant/casa-enrique,https://www.henrinyc.com/,1 MICHELIN Star,60.0,NY,New York,Northeast,Mexican
249,Topolobampo,"445 N. Clark St., Chicago, 60654, United States",60654,Chicago,100.0,140.0,USD,"Mexican, Regional Cuisine",-87.6309689,41.8907039,-783,https://guide.michelin.com/en/illinois/chicago/restaurant/topolobampo,https://www.rickbayless.com/,1 MICHELIN Star,120.0,IL,Illinois,Midwest,Mexican
279,Coni'Seafood,"3544 W. Imperial Hwy., Inglewood, 90303, United States",90303,Inglewood,18.0,58.0,USD,Mexican,-118.33494,33.930923,-1701,https://guide.michelin.com/en/california/inglewood/restaurant/coni-seafood,https://www.coniseafood.com/,Bib Gourmand,38.0,CA,California,West,Mexican
286,Rocio's Mexican Kitchen,"7891 Garfield Ave., Bell Gardens, 90201, United States",90201,Bell Gardens,25.0,25.0,USD,"Mexican, Regional Cuisine",-118.15646,33.960003,-6897,https://guide.michelin.com/en/california/bell-gardens/restaurant/rocio-s-mexican-kitchen,,Bib Gourmand,25.0,CA,California,West,Mexican
287,Rocio's Mexican Kitchen,"7891 Garfield Ave., Bell Gardens, 90201, United States",90201,Bell Gardens,25.0,25.0,USD,"Mexican, Regional Cuisine",-118.15646,33.960003,-6897,https://guide.michelin.com/en/california/bell-gardens/restaurant/rocio-s-mexican-kitchen,,Bib Gourmand,25.0,CA,California,West,Mexican
298,Playa,"41 Throckmorton Ave., Mill Valley, 94941, United States",94941,Mill Valley,45.0,50.0,USD,"Mexican, Tex-Mex",-122.54743,37.9065919,-7840,https://guide.michelin.com/en/california/mill-valley/restaurant/playa,https://www.playamv.com/,Bib Gourmand,47.5,CA,California,West,Mexican
300,Burritos La Palma,"5120 N. Peck Rd., El Monte, 91732, United States",91732,El Monte,25.0,25.0,USD,Mexican,-118.01197,34.095875,-7010,https://guide.michelin.com/en/california/el-monte/restaurant/burritos-la-palma,http://www.burritoslapalma.net/,Bib Gourmand,25.0,CA,California,West,Mexican
304,Luna Mexican Kitchen,"1495 The Alameda, San Jose, 95126, United States",95126,San Jose,44.0,44.0,USD,"Mexican, Regional Cuisine",-121.91513,37.33398,-1566,https://guide.michelin.com/en/california/san-jose/restaurant/luna-mexican-kitchen,https://www.lunamexicankitchen.com/,Bib Gourmand,44.0,CA,California,West,Mexican
307,CHAAK Kitchen,"215 El Camino Real, Tustin, 92780, United States",92780,Tustin,32.0,44.0,USD,"Mexican, Regional Cuisine",-117.8237347,33.7439846,-2061,https://guide.michelin.com/en/california/tustin/restaurant/chaak-kitchen,https://www.chaakkitchen.com/,Bib Gourmand,38.0,CA,California,West,Mexican
308,CHAAK Kitchen,"215 El Camino Real, Tustin, 92780, United States",92780,Tustin,32.0,44.0,USD,"Mexican, Regional Cuisine",-117.8237347,33.7439846,-2061,https://guide.michelin.com/en/california/tustin/restaurant/chaak-kitchen,https://www.chaakkitchen.com/,Bib Gourmand,38.0,CA,California,West,Mexican
317,El Molino Central,"11 Central Ave., Sonoma, 95476, United States",95476,Sonoma,40.0,40.0,USD,Mexican,-122.481964,38.315018,-242,https://guide.michelin.com/en/california/sonoma/restaurant/el-molino-central,https://www.elmolinocentral.com/,Bib Gourmand,40.0,CA,California,West,Mexican
318,El Molino Central,"11 Central Ave., Sonoma, 95476, United States",95476,Sonoma,40.0,40.0,USD,Mexican,-122.481964,38.315018,-242,https://guide.michelin.com/en/california/sonoma/restaurant/el-molino-central,https://www.elmolinocentral.com/,Bib Gourmand,40.0,CA,California,West,Mexican
319,El Molino Central,"11 Central Ave., Sonoma, 95476, United States",95476,Sonoma,40.0,40.0,USD,Mexican,-122.481964,38.315018,-242,https://guide.michelin.com/en/california/sonoma/restaurant/el-molino-central,https://www.elmolinocentral.com/,Bib Gourmand,40.0,CA,California,West,Mexican
330,Gabbi’s Mexican Kitchen,"141 S. Glassell St., Orange, 92866, United States",92866,Orange,44.0,44.0,USD,"Mexican, Regional Cuisine",-117.853004,33.78689,-1957,https://guide.michelin.com/en/california/us-orange/restaurant/gabbi%E2%80%99s-mexican-kitchen,https://www.gabbismexicankitchen.com/,Bib Gourmand,44.0,CA,California,West,Mexican
336,Nixtaco,"1805 Cirby Way, Ste. 12, Roseville, 95661, United States",95661,Roseville,25.0,26.0,USD,Mexican,-121.2564971,38.7297832,-3020,https://guide.michelin.com/en/california/roseville/restaurant/nixtaco,http://www.nixta.co,Bib Gourmand,25.5,CA,California,West,Mexican
341,Comal,"2020 Shattuck Ave., Berkeley, 94704, United States",94704,Berkeley,50.0,50.0,USD,Mexican,-122.26835,37.871647,-5716,https://guide.michelin.com/en/california/berkeley/restaurant/comal,http://www.comalberkeley.com,Bib Gourmand,50.0,CA,California,West,Mexican
358,LOLA 55,"1290 F St., San Diego, 92101, United States",92101,San Diego,25.0,25.0,USD,Mexican,-117.1530704,32.7138053,-8078,https://guide.michelin.com/en/california/us-san-diego/restaurant/lola-55,https://www.lola55.com/,Bib Gourmand,25.0,CA,California,West,Mexican
362,Mariscos Jalisco,"753 E. Holt Ave., Pomona, 91767, United States",91767,Pomona,25.0,25.0,USD,"Mexican, Regional Cuisine",-117.7354583,34.0628203,-5533,https://guide.michelin.com/en/california/pomona/restaurant/mariscos-jalisco,,Bib Gourmand,25.0,CA,California,West,Mexican
364,Tacos Oscar,"420 40th St., Oakland, 94609, United States",94609,Oakland,25.0,25.0,USD,"Mexican, Contemporary",-122.2602429,37.8286404,https://www.tacososcar.com/,https://guide.michelin.com/en/california/oakland/restaurant/tacos-oscar,https://www.tacososcar.com/,Bib Gourmand,25.0,CA,California,West,Mexican
370,Taquería El Paisa,"4610 International Blvd., Oakland, 94601, United States",94601,Oakland,15.0,20.0,USD,Mexican,-122.2112574,37.770894,-5498,https://guide.michelin.com/en/california/oakland/restaurant/taqueria-el-paisa,,Bib Gourmand,17.5,CA,California,West,Mexican
378,Corazon Cocina,"38 W. Victoria St., Santa Barbara, 93101, United States",93101,Santa Barbara,45.0,45.0,USD,"Mexican, Seafood",-119.7070638,34.4235974,678,https://guide.michelin.com/en/california/santa-barbara/restaurant/corazon-cocina,http://www.corazoncocinasb.com,Bib Gourmand,45.0,CA,California,West,Mexican
394,Mercado Los Angeles,"7910 W. 3rd St., Los Angeles, 90048, United States",90048,Los Angeles,50.0,60.0,USD,"Mexican, Regional Cuisine",-118.3620774,34.0714628,-568,https://guide.michelin.com/en/california/us-los-angeles/restaurant/mercado-los-angeles,https://www.mercadorestaurant.com/,Bib Gourmand,55.0,CA,California,West,Mexican
395,Mercado Los Angeles,"7910 W. 3rd St., Los Angeles, 90048, United States",90048,Los Angeles,50.0,60.0,USD,"Mexican, Regional Cuisine",-118.3620774,34.0714628,-568,https://guide.michelin.com/en/california/us-los-angeles/restaurant/mercado-los-angeles,https://www.mercadorestaurant.com/,Bib Gourmand,55.0,CA,California,West,Mexican
397,Holbox,"3655 S. Grand Ave., Los Angeles, 90007, United States",90007,Los Angeles,50.0,75.0,USD,"Mexican, Seafood",-118.27802,34.017384,-9745,https://guide.michelin.com/en/california/us-los-angeles/restaurant/holbox,https://www.holboxla.com/,Bib Gourmand,62.5,CA,California,West,Mexican
403,La Azteca,"4538 E. Cesar E Chavez Ave., Los Angeles, 90022, United States",90022,Los Angeles,20.0,20.0,USD,Mexican,-118.1683741,34.0404163,-4916,https://guide.michelin.com/en/california/us-los-angeles/restaurant/la-azteca,http://www.laaztecatortilleria.com,Bib Gourmand,20.0,CA,California,West,Mexican
404,La Azteca,"4538 E. Cesar E Chavez Ave., Los Angeles, 90022, United States",90022,Los Angeles,20.0,20.0,USD,Mexican,-118.1683741,34.0404163,-4916,https://guide.michelin.com/en/california/us-los-angeles/restaurant/la-azteca,http://www.laaztecatortilleria.com,Bib Gourmand,20.0,CA,California,West,Mexican
423,Bee Taqueria,"5754 W. Adams Blvd., Los Angeles, 90016, United States",90016,Los Angeles,40.0,50.0,USD,Mexican,-118.3689054,34.0323899,-8704,https://guide.michelin.com/en/california/us-los-angeles/restaurant/bee-taqueria,http://www.beetaqueria.com,Bib Gourmand,45.0,CA,California,West,Mexican
427,Nopalito,"306 Broderick St., San Francisco, 94117, United States",94117,San Francisco,50.0,50.0,USD,"Mexican, Californian",-122.4388555,37.7732695,675,https://guide.michelin.com/en/california/san-francisco/restaurant/nopalito,https://www.nopalitosf.com/,Bib Gourmand,50.0,CA,California,West,Mexican
433,Flores,"2030 Union St., San Francisco, 94123, United States",94123,San Francisco,50.0,50.0,USD,"Mexican, Regional Cuisine",-122.4326948,37.7975502,-2307,https://guide.michelin.com/en/california/san-francisco/restaurant/flores,https://www.floressf.com/,Bib Gourmand,50.0,CA,California,West,Mexican
453,Xixa,"241 S. 4th St., New York, 11211, United States",11211,New York,50.0,50.0,USD,"Mexican, Contemporary",-73.95857,40.710365,-7530,https://guide.michelin.com/en/new-york-state/new-york/restaurant/xixa,https://www.xixany.com/,Bib Gourmand,50.0,NY,New York,Northeast,Mexican
454,Xixa,"241 S. 4th St., New York, 11211, United States",11211,New York,50.0,50.0,USD,"Mexican, Contemporary",-73.95857,40.710365,-7530,https://guide.michelin.com/en/new-york-state/new-york/restaurant/xixa,https://www.xixany.com/,Bib Gourmand,50.0,NY,New York,Northeast,Mexican
539,Oso,"1618 Amsterdam Ave., New York, 10031, United States",10031,New York,49.0,57.0,USD,"Mexican, Regional Cuisine",-73.95009,40.8219,-2351,https://guide.michelin.com/en/new-york-state/new-york/restaurant/oso,https://www.osoharlem.com/,Bib Gourmand,53.0,NY,New York,Northeast,Mexican
540,Oso,"1618 Amsterdam Ave., New York, 10031, United States",10031,New York,49.0,57.0,USD,"Mexican, Regional Cuisine",-73.95009,40.8219,-2351,https://guide.michelin.com/en/new-york-state/new-york/restaurant/oso,https://www.osoharlem.com/,Bib Gourmand,53.0,NY,New York,Northeast,Mexican
557,Mexicosina,"503 Jackson Ave., New York, 10455, United States",10455,New York,30.0,30.0,USD,"Mexican, Regional Cuisine",-73.9096505,40.8118377,-490,https://guide.michelin.com/en/new-york-state/new-york/restaurant/mexicosina,https://www.mexicosina.com/,Bib Gourmand,30.0,NY,New York,Northeast,Mexican
558,Mexicosina,"503 Jackson Ave., New York, 10455, United States",10455,New York,30.0,30.0,USD,"Mexican, Regional Cuisine",-73.9096505,40.8118377,-490,https://guide.michelin.com/en/new-york-state/new-york/restaurant/mexicosina,https://www.mexicosina.com/,Bib Gourmand,30.0,NY,New York,Northeast,Mexican
578,La Morada,"308 Willis Ave., New York, 10454, United States",10454,New York,25.0,25.0,USD,"Mexican, Regional Cuisine",-73.921715,40.81067,1191,https://guide.michelin.com/en/new-york-state/new-york/restaurant/la-morada,https://www.lamoradanyc.com/,Bib Gourmand,25.0,NY,New York,Northeast,Mexican
579,La Morada,"308 Willis Ave., New York, 10454, United States",10454,New York,25.0,25.0,USD,"Mexican, Regional Cuisine",-73.921715,40.81067,1191,https://guide.michelin.com/en/new-york-state/new-york/restaurant/la-morada,https://www.lamoradanyc.com/,Bib Gourmand,25.0,NY,New York,Northeast,Mexican
580,La Cueva Fonda,"961 Leggett Ave., New York, 10455, United States",10455,New York,25.0,40.0,USD,"Mexican, Regional Cuisine",-73.9003727,40.8151979,-4644,https://guide.michelin.com/en/new-york-state/new-york/restaurant/la-cueva-fonda,https://www.lacuevafondabx.com/,Bib Gourmand,32.5,NY,New York,Northeast,Mexican
581,La Cueva Fonda,"961 Leggett Ave., New York, 10455, United States",10455,New York,25.0,40.0,USD,"Mexican, Regional Cuisine",-73.9003727,40.8151979,-4644,https://guide.michelin.com/en/new-york-state/new-york/restaurant/la-cueva-fonda,https://www.lacuevafondabx.com/,Bib Gourmand,32.5,NY,New York,Northeast,Mexican
616,Gordo's Cantina,"140 St. Nicholas Ave., New York, 11237, United States",11237,New York,45.0,45.0,USD,Mexican,-73.9175292,40.7049991,-8238,https://guide.michelin.com/en/new-york-state/new-york/restaurant/gordo-s-cantina,https://gordoscantina.com/,Bib Gourmand,45.0,NY,New York,Northeast,Mexican
617,Gordo's Cantina,"140 St. Nicholas Ave., New York, 11237, United States",11237,New York,45.0,45.0,USD,Mexican,-73.9175292,40.7049991,-8238,https://guide.michelin.com/en/new-york-state/new-york/restaurant/gordo-s-cantina,https://gordoscantina.com/,Bib Gourmand,45.0,NY,New York,Northeast,Mexican
626,For All Things Good,"343 Franklin Ave., New York, 11238, United States",11238,New York,30.0,30.0,USD,Mexican,-73.9568935,40.6876752,-2429,https://guide.michelin.com/en/new-york-state/new-york/restaurant/for-all-things-good,https://www.forallthingsgoodbk.com/,Bib Gourmand,30.0,NY,New York,Northeast,Mexican
627,For All Things Good,"343 Franklin Ave., New York, 11238, United States",11238,New York,30.0,30.0,USD,Mexican,-73.9568935,40.6876752,-2429,https://guide.michelin.com/en/new-york-state/new-york/restaurant/for-all-things-good,https://www.forallthingsgoodbk.com/,Bib Gourmand,30.0,NY,New York,Northeast,Mexican
632,El Molcajete,"1506-1508 Westchester Ave., New York, 10472, United States",10472,New York,25.0,25.0,USD,"Mexican, Regional Cuisine",-73.8797398,40.8286092,-204,https://guide.michelin.com/en/new-york-state/new-york/restaurant/el-molcajete,,Bib Gourmand,25.0,NY,New York,Northeast,Mexican
633,El Molcajete,"1506-1508 Westchester Ave., New York, 10472, United States",10472,New York,25.0,25.0,USD,"Mexican, Regional Cuisine",-73.8797398,40.8286092,-204,https://guide.michelin.com/en/new-york-state/new-york/restaurant/el-molcajete,,Bib Gourmand,25.0,NY,New York,Northeast,Mexican
657,Chavela’s,"736 Franklin Ave., New York, 11238, United States",11238,New York,30.0,30.0,USD,Mexican,-73.9570421,40.6734308,-2004,https://guide.michelin.com/en/new-york-state/new-york/restaurant/chavela-s,https://www.chavelasnyc.com/,Bib Gourmand,30.0,NY,New York,Northeast,Mexican
658,Chavela’s,"736 Franklin Ave., New York, 11238, United States",11238,New York,30.0,30.0,USD,Mexican,-73.9570421,40.6734308,-2004,https://guide.michelin.com/en/new-york-state/new-york/restaurant/chavela-s,https://www.chavelasnyc.com/,Bib Gourmand,30.0,NY,New York,Northeast,Mexican
682,Atla,"372 Lafayette St., New York, 10012, United States",10012,New York,50.0,50.0,USD,"Mexican, Contemporary",-73.993827,40.727269,-2837,https://guide.michelin.com/en/new-york-state/new-york/restaurant/atla,https://www.atlanyc.com/,Bib Gourmand,50.0,NY,New York,Northeast,Mexican
683,Atla,"372 Lafayette St., New York, 10012, United States",10012,New York,50.0,50.0,USD,"Mexican, Contemporary",-73.993827,40.727269,-2837,https://guide.michelin.com/en/new-york-state/new-york/restaurant/atla,https://www.atlanyc.com/,Bib Gourmand,50.0,NY,New York,Northeast,Mexican
697,La Josie,"740 W. Randolph St., Chicago, 60661, United States",60661,Chicago,45.0,47.0,USD,"Mexican, Contemporary",-87.647322,41.884617,-2517,https://guide.michelin.com/en/illinois/chicago/restaurant/la-josie,https://www.lajosie.com/,Bib Gourmand,46.0,IL,Illinois,Midwest,Mexican
716,Lonesome Rose,"2101 N. California Ave., Chicago, 60647, United States",60647,Chicago,25.0,30.0,USD,Mexican,-87.69718,41.9196,-2411,https://guide.michelin.com/en/illinois/chicago/restaurant/lonesome-rose,https://www.lonesomerose.com/,Bib Gourmand,27.5,IL,Illinois,Midwest,Mexican
717,Frontera Grill,"445 N. Clark St., Chicago, 60654, United States",60654,Chicago,50.0,50.0,USD,Mexican,-87.630914,41.890567,-783,https://guide.michelin.com/en/illinois/chicago/restaurant/frontera-grill,https://www.rickbayless.com/,Bib Gourmand,50.0,IL,Illinois,Midwest,Mexican
720,Sol de Mexico,"3018 N. Cicero Ave., Chicago, 60641, United States",60641,Chicago,50.0,50.0,USD,"Mexican, Regional Cuisine",-87.74698,41.93575,-2628,https://guide.michelin.com/en/illinois/chicago/restaurant/sol-de-mexico,https://www.soldemexicochicago.com/,Bib Gourmand,50.0,IL,Illinois,Midwest,Mexican
723,Tzuco,"720 N. State St., Chicago, 60654, United States",60654,Chicago,65.0,130.0,USD,Mexican,-87.6283518,41.8955644,-8057,https://guide.michelin.com/en/illinois/chicago/restaurant/tzuco,http://www.tzuco.com,Bib Gourmand,97.5,IL,Illinois,Midwest,Mexican
725,Dos Urban Cantina,"2829 W. Armitage Ave., Chicago, 60647, United States",60647,Chicago,52.0,52.0,USD,Mexican,-87.698326,41.917416,-5340,https://guide.michelin.com/en/illinois/chicago/restaurant/dos-urban-cantina,https://www.dosurbancantina.com/,Bib Gourmand,52.0,IL,Illinois,Midwest,Mexican
728,DeCOLORES,"1626 S. Halsted St., Chicago, 60609, United States",60609,Chicago,41.0,41.0,USD,Mexican,-87.6467505,41.8592257,-8800,https://guide.michelin.com/en/illinois/chicago/restaurant/decolores,https://www.decolor.us/,Bib Gourmand,41.0,IL,Illinois,Midwest,Mexican
734,Chilam Balam,"3023 N. Broadway, Chicago, 60657, United States",60657,Chicago,50.0,50.0,USD,Mexican,-87.6441621,41.9372337,-5424,https://guide.michelin.com/en/illinois/chicago/restaurant/chilam-balam,https://www.chilambalamchicago.com/,Bib Gourmand,50.0,IL,Illinois,Midwest,Mexican
736,Kie-Gol-Lanee,"5004 N. Sheridan Rd., Chicago, 60640, United States",60640,Chicago,40.0,40.0,USD,Mexican,-87.6550435,41.9733966,-7457,https://guide.michelin.com/en/illinois/chicago/restaurant/kie-gol-lanee,https://www.kiegol.com/,Bib Gourmand,40.0,IL,Illinois,Midwest,Mexican
739,Birrieria Zaragoza,"4852 S. Pulaski Rd., Chicago, 60632, United States",60632,Chicago,25.0,25.0,USD,"Mexican, Regional Cuisine",-87.723342,41.8050361,-2450,https://guide.michelin.com/en/illinois/chicago/restaurant/birrieria-zaragoza,https://www.birrieriazaragoza.com/,Bib Gourmand,25.0,IL,Illinois,Midwest,Mexican
740,Mi Tocaya,"2800 W. Logan Blvd., Chicago, 60647, United States",60647,Chicago,50.0,50.0,USD,Mexican,-87.6976607,41.9288424,-2390,https://guide.michelin.com/en/illinois/chicago/restaurant/mi-tocaya,https://www.mitocaya.com/,Bib Gourmand,50.0,IL,Illinois,Midwest,Mexican
754,Oyamel,"401 7th St. NW, Washington, 20004, United States",20004,Washington,50.0,55.0,USD,Mexican,-77.02183,38.89489,-431,https://guide.michelin.com/en/district-of-columbia/washington-dc/restaurant/oyamel,https://www.oyamel.com/,Bib Gourmand,52.5,DC,District of Columbia,South,Mexican
757,Taqueria Habanero,"3710 14th St. NW, Washington, 20010, United States",20010,Washington,30.0,30.0,USD,Mexican,-77.0328526,38.9374907,-7220,https://guide.michelin.com/en/district-of-columbia/washington-dc/restaurant/taqueria-habanero,https://www.habanerodc.com/,Bib Gourmand,30.0,DC,District of Columbia,South,Mexican
