,Name,Address,Zip,Location,MinPrice,MaxPrice,Currency,Cuisine,Longitude,Latitude,PhoneNumber,Url,WebsiteUrl,Award,AveragePrice,state_id,state_name,region,General_Category
12,Le Bernardin,"155 W. 51st St., New York, 10019, United States",10019,New York,93.0,228.0,USD,Seafood,-73.98223,40.76177,-857,https://guide.michelin.com/en/new-york-state/new-york/restaurant/le-bernardin,https://www.le-bernardin.com/,3 MICHELIN Stars,160.5,NY,New York,Northeast,Seafood
13,Le Bernardin,"155 W. 51st St., New York, 10019, United States",10019,New York,93.0,228.0,USD,Seafood,-73.98223,40.76177,-857,https://guide.michelin.com/en/new-york-state/new-york/restaurant/le-bernardin,https://www.le-bernardin.com/,3 MICHELIN Stars,160.5,NY,New York,Northeast,Seafood
20,Providence,"5955 Melrose Ave., Hollywood, 90038, United States",90038,Hollywood,225.0,475.0,USD,Seafood,-118.3301829,34.083576,-3307,https://guide.michelin.com/en/california/hollywood/restaurant/providence,https://www.providencela.com/,2 MICHELIN Stars,350.0,CA,California,West,Seafood
187,ZZ’s Clam Bar,"169 Thompson St., New York, 10012, United States",10012,New York,150.0,150.0,USD,Seafood,-74.00046,40.727646,-2042,https://guide.michelin.com/en/new-york-state/new-york/restaurant/zz-s-clam-bar,https://www.zzsclambar.com/,1 MICHELIN Star,150.0,NY,New York,Northeast,Seafood
188,ZZ’s Clam Bar,"169 Thompson St., New York, 10012, United States",10012,New York,150.0,150.0,USD,Seafood,-74.00046,40.727646,-2042,https://guide.michelin.com/en/new-york-state/new-york/restaurant/zz-s-clam-bar,https://www.zzsclambar.com/,1 MICHELIN Star,150.0,NY,New York,Northeast,Seafood
199,Marea,"240 Central Park South, New York, 10019, United States",10019,New York,63.0,150.0,USD,"Seafood, Italian",-73.9810681,40.767619,-4470,https://guide.michelin.com/en/new-york-state/new-york/restaurant/marea,https://www.marea-nyc.com/,1 MICHELIN Star,106.5,NY,New York,Northeast,Seafood
200,Marea,"240 Central Park South, New York, 10019, United States",10019,New York,63.0,150.0,USD,"Seafood, Italian",-73.9810681,40.767619,-4470,https://guide.michelin.com/en/new-york-state/new-york/restaurant/marea,https://www.marea-nyc.com/,1 MICHELIN Star,106.5,NY,New York,Northeast,Seafood
391,Fishwives,"88 N. Fair Oaks Ave., Pasadena, 91103, United States",91103,Pasadena,50.0,50.0,USD,Seafood,-118.1504096,34.1471318,-4792,https://guide.michelin.com/en/california/pasadena/restaurant/fishwives,https://www.fishwives.com/,Bib Gourmand,50.0,CA,California,West,Seafood
406,Mi Lindo Nayrit Mariscos,"1020 E. Florence Ave., Los Angeles, 90001, United States",90001,Los Angeles,50.0,50.0,USD,"Seafood, Mexican",-118.256516,33.9746604,-4375,https://guide.michelin.com/en/california/us-los-angeles/restaurant/mi-lindo-nayrit-mariscos,https://www.milindonayarit.com/,Bib Gourmand,50.0,CA,California,West,Seafood
407,Mi Lindo Nayrit Mariscos,"1020 E. Florence Ave., Los Angeles, 90001, United States",90001,Los Angeles,50.0,50.0,USD,"Seafood, Mexican",-118.256516,33.9746604,-4375,https://guide.michelin.com/en/california/us-los-angeles/restaurant/mi-lindo-nayrit-mariscos,https://www.milindonayarit.com/,Bib Gourmand,50.0,CA,California,West,Seafood
413,Son of a Gun,"8370 W. 3rd St., Los Angeles, 90048, United States",90048,Los Angeles,50.0,50.0,USD,Seafood,-118.3724711,34.0727791,-8492,https://guide.michelin.com/en/california/us-los-angeles/restaurant/son-of-a-gun,https://www.sonofagunrestaurant.com/,Bib Gourmand,50.0,CA,California,West,Seafood
414,Son of a Gun,"8370 W. 3rd St., Los Angeles, 90048, United States",90048,Los Angeles,50.0,50.0,USD,Seafood,-118.3724711,34.0727791,-8492,https://guide.michelin.com/en/california/us-los-angeles/restaurant/son-of-a-gun,https://www.sonofagunrestaurant.com/,Bib Gourmand,50.0,CA,California,West,Seafood
429,Anchor Oyster Bar,"579 Castro St., San Francisco, 94114, United States",94114,San Francisco,65.0,65.0,USD,"Seafood, Italian-American",-122.43468,37.75986,-3006,https://guide.michelin.com/en/california/san-francisco/restaurant/anchor-oyster-bar,https://www.anchoroysterbar.com/,Bib Gourmand,65.0,CA,California,West,Seafood
509,Saint Julivert Fisherie,"264 Clinton St., New York, 11201, United States",11201,New York,50.0,50.0,USD,Seafood,-73.995614,40.6878747,-3350,https://guide.michelin.com/en/new-york-state/new-york/restaurant/saint-julivert-fisherie,https://www.saintjulivertbk.com/,Bib Gourmand,50.0,NY,New York,Northeast,Seafood
510,Saint Julivert Fisherie,"264 Clinton St., New York, 11201, United States",11201,New York,50.0,50.0,USD,Seafood,-73.995614,40.6878747,-3350,https://guide.michelin.com/en/new-york-state/new-york/restaurant/saint-julivert-fisherie,https://www.saintjulivertbk.com/,Bib Gourmand,50.0,NY,New York,Northeast,Seafood
561,Mar's,"34-21 34th Ave., New York, 11106, United States",11106,New York,30.0,50.0,USD,Seafood,-73.9241195,40.7582783,-1447,https://guide.michelin.com/en/new-york-state/new-york/restaurant/mar-s,https://www.lifeatmars.com/,Bib Gourmand,40.0,NY,New York,Northeast,Seafood
562,Mar's,"34-21 34th Ave., New York, 11106, United States",11106,New York,30.0,50.0,USD,Seafood,-73.9241195,40.7582783,-1447,https://guide.michelin.com/en/new-york-state/new-york/restaurant/mar-s,https://www.lifeatmars.com/,Bib Gourmand,40.0,NY,New York,Northeast,Seafood
722,GT Fish & Oyster,"531 N. Wells St., Chicago, 60654, United States",60654,Chicago,50.0,50.0,USD,Seafood,-87.63369,41.8918,-3118,https://guide.michelin.com/en/illinois/chicago/restaurant/gt-fish-oyster,https://www.gtoyster.com/,Bib Gourmand,50.0,IL,Illinois,Midwest,Seafood
765,Ivy MTP.City Smokehouse,"1356 Okie St. NE, Washington, 20002, United States",20002,Washington,50.0,50.0,USD,"Seafood, American",-76.98566,38.9144387,-2627,https://guide.michelin.com/en/district-of-columbia/washington-dc/restaurant/ivy-city-smokehouse,https://www.ivycitysmokehouse.com/,Bib Gourmand,50.0,DC,District of Columbia,South,Seafood
